{"E12 6SA": {"lat": 51.542422, "lon": 0.050489, "admin_district": "Newham", "precision": "exact"}, "HA1 4JU": {"lat": 51.58326, "lon": -0.354476, "admin_district": "Harrow", "precision": "exact"}, "NW9 6NB": {"lat": 51.589217, "lon": -0.253843, "admin_district": "Brent", "precision": "exact"}, "SW12 8BG": {"lat": 51.450094, "lon": -0.154684, "admin_district": "Wandsworth", "precision": "exact"}, "SE13 6BG": {"lat": 51.461801, "lon": -0.009489, "admin_district": "Lewisham", "precision": "exact"}, "NR1 3HP": {"lat": 52.618481, "lon": 1.297439, "admin_district": "Norwich", "precision": "exact"}, "PO19 1HX": {"lat": 50.83629, "lon": -0.77513, "admin_district": "Chichester", "precision": "exact"}, "HP20 2AH": {"lat": 51.826591, "lon": -0.804292, "admin_district": "Buckinghamshire", "precision": "exact"}, "SE9 3UL": {"lat": 51.436868, "lon": 0.073254, "admin_district": "Greenwich", "precision": "exact"}, "N19 5QT": {"lat": 51.564865, "lon": -0.134631, "admin_district": "Islington", "precision": "exact"}, "W1G 6AL": {"lat": 51.521215, "lon": -0.14825, "admin_district": "Westminster", "precision": "exact"}, "BR6 0LF": {"lat": 51.379381, "lon": 0.102787, "admin_district": "Bromley", "precision": "exact"}, "S6 3BZ": {"lat": 53.389887, "lon": -1.480759, "admin_district": "Sheffield", "precision": "exact"}, "HP20 2QL": {"lat": 51.816817, "lon": -0.814924, "admin_district": "Buckinghamshire", "precision": "exact"}, "BD18 3LU": {"lat": 53.833741, "lon": -1.784718, "admin_district": "Bradford", "precision": "exact"}, "SO51 8BZ": {"lat": 50.988496, "lon": -1.494104, "admin_district": "Test Valley", "precision": "exact"}, "SO31 6AH": {"lat": 50.868872, "lon": -1.257804, "admin_district": "Fareham", "precision": "exact"}, "CH42 9PZ": {"lat": 53.371791, "lon": -3.038311, "admin_district": "Wirral", "precision": "exact"}, "UB1 1RT": {"lat": 51.510662, "lon": -0.376232, "admin_district": "Ealing", "precision": "exact"}, "TW8 9DU": {"lat": 51.483635, "lon": -0.324162, "admin_district": "Hounslow", "precision": "exact"}, "TW3 4JX": {"lat": 51.471773, "lon": -0.366799, "admin_district": "Hounslow", "precision": "exact"}, "OL15 8JZ": {"lat": 53.641858, "lon": -2.106461, "admin_district": "Rochdale", "precision": "exact"}, "PE11 4NJ": {"lat": 52.868902, "lon": -0.160584, "admin_district": "South Holland", "precision": "exact"}, "SO16 8HY": {"lat": 50.940926, "lon": -1.448635, "admin_district": "Southampton", "precision": "exact"}, "CB22 3EW": {"lat": 52.112456, "lon": 0.177307, "admin_district": "South Cambridgeshire", "precision": "exact"}, "SL6 1PT": {"lat": 51.522729, "lon": -0.722961, "admin_district": "Windsor and Maidenhead", "precision": "exact"}, "TN20 6AW": {"lat": 51.020056, "lon": 0.259224, "admin_district": "Wealden", "precision": "exact"}, "SO18 5EQ": {"lat": 50.914803, "lon": -1.352454, "admin_district": "Southampton", "precision": "exact"}, "IP18 6PY": {"lat": 52.336896, "lon": 1.668868, "admin_district": "East Suffolk", "precision": "exact"}, "WD3 5NH": {"lat": 51.65402, "lon": -0.522108, "admin_district": "Three Rivers", "precision": "exact"}, "HA7 4AH": {"lat": 51.616702, "lon": -0.313254, "admin_district": "Harrow", "precision": "exact"}, "RM2 6NA": {"lat": 51.587417, "lon": 0.203572, "admin_district": "Havering", "precision": "exact"}, "W1G 7JT": {"lat": 51.522276, "lon": -0.148236, "admin_district": "Westminster", "precision": "exact"}, "IG2 6XH": {"lat": 51.577601, "lon": 0.065898, "admin_district": "Redbridge", "precision": "exact"}, "KT12 3ET": {"lat": 51.379883, "lon": -0.396383, "admin_district": "Elmbridge", "precision": "exact"}, "KT14 6LD": {"lat": 51.33647, "lon": -0.504722, "admin_district": "Woking", "precision": "exact"}, "HA3 0XN": {"lat": 51.586175, "lon": -0.307183, "admin_district": "Brent", "precision": "exact"}, "HR8 2EY": {"lat": 52.034842, "lon": -2.422334, "admin_district": "Herefordshire, County of", "precision": "exact"}, "TN29 9DQ": {"lat": 50.950813, "lon": 0.907549, "admin_district": "Folkestone and Hythe", "precision": "exact"}, "LE2 6EG": {"lat": 52.613481, "lon": -1.124163, "admin_district": "Leicester", "precision": "exact"}, "RG10 8BY": {"lat": 51.501341, "lon": -0.869807, "admin_district": "Wokingham", "precision": "exact"}, "LS15 8GH": {"lat": 53.80026, "lon": -1.425744, "admin_district": "Leeds", "precision": "exact"}, "LN4 4SG": {"lat": 53.104809, "lon": -0.173754, "admin_district": "East Lindsey", "precision": "exact"}, "W1G 9PY": {"lat": 51.519042, "lon": -0.146753, "admin_district": "Westminster", "precision": "exact"}, "UB6 8HR": {"lat": 51.534584, "lon": -0.332773, "admin_district": "Ealing", "precision": "exact"}, "SL1 2EJ": {"lat": 51.508421, "lon": -0.596254, "admin_district": "Slough", "precision": "exact"}, "HA7 1ER": {"lat": 51.59479, "lon": -0.288613, "admin_district": "Harrow", "precision": "exact"}, "BB5 1DQ": {"lat": 53.756537, "lon": -2.368699, "admin_district": "Hyndburn", "precision": "exact"}, "RH12 1HE": {"lat": 51.060793, "lon": -0.329509, "admin_district": "Horsham", "precision": "exact"}, "DA12 2NQ": {"lat": 51.432015, "lon": 0.399669, "admin_district": "Gravesham", "precision": "exact"}, "SE16 4RT": {"lat": 51.498148, "lon": -0.061977, "admin_district": "Southwark", "precision": "exact"}, "PL20 6DS": {"lat": 50.49182, "lon": -4.084254, "admin_district": "West Devon", "precision": "exact"}, "BS22 6HQ": {"lat": 51.360167, "lon": -2.928585, "admin_district": "North Somerset", "precision": "exact"}, "CB8 8ET": {"lat": 52.242685, "lon": 0.409919, "admin_district": "West Suffolk", "precision": "exact"}, "EC1Y 4SE": {"lat": 51.521023, "lon": -0.090887, "admin_district": "Islington", "precision": "exact"}, "N9 7DU": {"lat": 51.639912, "lon": -0.048149, "admin_district": "Enfield", "precision": "exact"}, "ME14 5SF": {"lat": 51.271626, "lon": 0.53776, "admin_district": "Maidstone", "precision": "exact"}, "S40 1SZ": {"lat": 53.23376, "lon": -1.427471, "admin_district": "Chesterfield", "precision": "exact"}, "TW12 1NB": {"lat": 51.423219, "lon": -0.358736, "admin_district": "Richmond upon Thames", "precision": "exact"}, "B10 0UF": {"lat": 52.471356, "lon": -1.861969, "admin_district": "Birmingham", "precision": "exact"}, "TN37 6JB": {"lat": 50.859861, "lon": 0.561617, "admin_district": "Hastings", "precision": "exact"}, "GU30 7NS": {"lat": 51.079223, "lon": -0.804631, "admin_district": "East Hampshire", "precision": "exact"}, "BN21 2AL": {"lat": 50.772474, "lon": 0.278505, "admin_district": "Eastbourne", "precision": "exact"}, "WA3 4NQ": {"lat": 53.452635, "lon": -2.528887, "admin_district": "Warrington", "precision": "exact"}, "N8 0JG": {"lat": 51.589814, "lon": -0.10403, "admin_district": "Haringey", "precision": "exact"}, "NW3 1NH": {"lat": 51.554827, "lon": -0.172172, "admin_district": "Camden", "precision": "exact"}, "IG1 2RR": {"lat": 51.553539, "lon": 0.073434, "admin_district": "Redbridge", "precision": "exact"}, "LA2 6DZ": {"lat": 54.090944, "lon": -2.814299, "admin_district": "Lancaster", "precision": "exact"}, "SY4 4AS": {"lat": 52.78999, "lon": -2.713494, "admin_district": "Shropshire", "precision": "exact"}, "HA4 7LB": {"lat": 51.5759, "lon": -0.430335, "admin_district": "Hillingdon", "precision": "exact"}, "YO1 9RN": {"lat": 53.957312, "lon": -1.080739, "admin_district": "York", "precision": "exact"}, "KT11 3EG": {"lat": 51.326797, "lon": -0.410677, "admin_district": "Elmbridge", "precision": "exact"}, "PO31 7TG": {"lat": 50.762005, "lon": -1.298914, "admin_district": "Isle of Wight", "precision": "exact"}, "LS13 1LT": {"lat": 53.823936, "lon": -1.666537, "admin_district": "Leeds", "precision": "exact"}, "B70 9LB": {"lat": 52.522752, "lon": -2.001542, "admin_district": "Sandwell", "precision": "exact"}, "WR4 0DZ": {"lat": 52.200021, "lon": -2.177912, "admin_district": "Worcester", "precision": "exact"}, "W3 9DD": {"lat": 51.507457, "lon": -0.272694, "admin_district": "Ealing", "precision": "exact"}, "LE8 8AS": {"lat": 52.534232, "lon": -1.045022, "admin_district": "Harborough", "precision": "exact"}, "SE21 8HY": {"lat": 51.439691, "lon": -0.096899, "admin_district": "Lambeth", "precision": "exact"}, "HA4 7DA": {"lat": 51.572505, "lon": -0.426585, "admin_district": "Hillingdon", "precision": "exact"}, "LS22 5AW": {"lat": 53.907607, "lon": -1.411595, "admin_district": "Leeds", "precision": "exact"}, "KT6 4AG": {"lat": 51.394626, "lon": -0.308442, "admin_district": "Kingston upon Thames", "precision": "exact"}, "NE16 4JA": {"lat": 54.946029, "lon": -1.678747, "admin_district": "Gateshead", "precision": "exact"}, "NR4 7HN": {"lat": 52.629297, "lon": 1.253998, "admin_district": "Norwich", "precision": "exact"}, "GU15 3PU": {"lat": 51.335675, "lon": -0.749828, "admin_district": "Surrey Heath", "precision": "exact"}, "OX4 1LF": {"lat": 51.747598, "lon": -1.239898, "admin_district": "Oxford", "precision": "exact"}, "GL6 0BW": {"lat": 51.73434698755993, "lon": -2.1935363818181823, "admin_district": null, "precision": "outcode_fallback"}, "BS34 5JQ": {"lat": 51.528976, "lon": -2.570571, "admin_district": "South Gloucestershire", "precision": "exact"}, "AL8 6BQ": {"lat": 51.80146, "lon": -0.207758, "admin_district": "Welwyn Hatfield", "precision": "exact"}, "WV1 3ER": {"lat": 52.584875, "lon": -2.126894, "admin_district": "Wolverhampton", "precision": "exact"}, "RM1 1DT": {"lat": 51.58357, "lon": 0.174575, "admin_district": "Havering", "precision": "exact"}, "SO51 0DU": {"lat": 51.004116, "lon": -1.47391, "admin_district": "Test Valley", "precision": "exact"}, "EX20 2LS": {"lat": 50.747695, "lon": -3.910444, "admin_district": "West Devon", "precision": "exact"}, "NG31 7DL": {"lat": 52.910158, "lon": -0.657246, "admin_district": "South Kesteven", "precision": "exact"}, "BN11 5DT": {"lat": 50.813963, "lon": -0.398775, "admin_district": "Worthing", "precision": "exact"}, "GL20 5BB": {"lat": 51.99482, "lon": -2.156966, "admin_district": "Tewkesbury", "precision": "exact"}, "WD24 7RT": {"lat": 51.679476, "lon": -0.389942, "admin_district": "Watford", "precision": "exact"}, "TA11 7ND": {"lat": 51.054594, "lon": -2.727787, "admin_district": "Somerset", "precision": "exact"}, "BA20 1TE": {"lat": 50.941132, "lon": -2.634477, "admin_district": "Somerset", "precision": "exact"}, "BA16 0EW": {"lat": 51.12615, "lon": -2.741401, "admin_district": "Somerset", "precision": "exact"}, "PR3 1EL": {"lat": 53.901068, "lon": -2.775016, "admin_district": "Wyre", "precision": "exact"}, "BN1 4GE": {"lat": 50.831221, "lon": -0.136918, "admin_district": "Brighton and Hove", "precision": "exact"}, "BH23 1PD": {"lat": 50.736919, "lon": -1.785835, "admin_district": "Bournemouth, Christchurch and Poole", "precision": "exact"}, "RH16 3AX": {"lat": 51.001007, "lon": -0.10222, "admin_district": "Mid Sussex", "precision": "exact"}, "S41 8LX": {"lat": 53.259522, "lon": -1.429196, "admin_district": "Chesterfield", "precision": "exact"}, "RM8 1XU": {"lat": 51.562965, "lon": 0.120596, "admin_district": "Barking and Dagenham", "precision": "exact"}, "CM14 4BJ": {"lat": 51.619308, "lon": 0.301433, "admin_district": "Brentwood", "precision": "exact"}, "RM15 6PL": {"lat": 51.523039, "lon": 0.294889, "admin_district": "Thurrock", "precision": "exact"}, "OX4 4HS": {"lat": 51.731287, "lon": -1.227255, "admin_district": "Oxford", "precision": "exact"}, "SK6 4HT": {"lat": 53.414842, "lon": -2.079924, "admin_district": "Stockport", "precision": "exact"}, "RH12 3XS": {"lat": 51.066553, "lon": -0.364212, "admin_district": "Horsham", "precision": "exact"}, "DL4 1AL": {"lat": 54.632621, "lon": -1.650376, "admin_district": "County Durham", "precision": "exact"}, "TW15 2TY": {"lat": 51.433374, "lon": -0.464487, "admin_district": "Spelthorne", "precision": "exact"}, "N14 7HD": {"lat": 51.623095, "lon": -0.121929, "admin_district": "Enfield", "precision": "exact"}, "HP18 9BS": {"lat": 51.773789, "lon": -0.995225, "admin_district": "Buckinghamshire", "precision": "exact"}, "EN11 8UA": {"lat": 51.764693, "lon": -0.011119, "admin_district": "Broxbourne", "precision": "exact"}, "GU25 4PT": {"lat": 51.407463, "lon": -0.58192, "admin_district": "Runnymede", "precision": "exact"}, "NE16 4DT": {"lat": 54.945751, "lon": -1.675378, "admin_district": "Gateshead", "precision": "exact"}, "DH7 0ER": {"lat": 54.822155, "lon": -1.743712, "admin_district": "County Durham", "precision": "exact"}, "NE3 2DQ": {"lat": 55.015806, "lon": -1.62202, "admin_district": "Newcastle upon Tyne", "precision": "exact"}, "SO16 3AY": {"lat": 50.938312, "lon": -1.391281, "admin_district": "Southampton", "precision": "exact"}, "SW9 8LH": {"lat": 51.461428, "lon": -0.113054, "admin_district": "Lambeth", "precision": "exact"}, "BS48 3HA": {"lat": 51.413185, "lon": -2.740327, "admin_district": "North Somerset", "precision": "exact"}, "SN13 0HB": {"lat": 51.431652, "lon": -2.185495, "admin_district": "Wiltshire", "precision": "exact"}, "M32 9BP": {"lat": 53.445615, "lon": -2.315412, "admin_district": "Trafford", "precision": "exact"}, "TN26 2EG": {"lat": 51.093916, "lon": 0.853598, "admin_district": "Ashford", "precision": "exact"}, "LE17 6LJ": {"lat": 52.452924, "lon": -1.055256, "admin_district": "Harborough", "precision": "exact"}, "HA9 0NP": {"lat": 51.5613, "lon": -0.279195, "admin_district": "Brent", "precision": "exact"}, "RH12 1SL": {"lat": 51.06288, "lon": -0.333344, "admin_district": "Horsham", "precision": "exact"}, "SG12 7AA": {"lat": 51.809771, "lon": -0.02705, "admin_district": "East Hertfordshire", "precision": "exact"}, "SE5 8DX": {"lat": 51.460386, "lon": -0.093692, "admin_district": "Lambeth", "precision": "exact"}, "M9 4LY": {"lat": 53.507422, "lon": -2.202167, "admin_district": "Manchester", "precision": "exact"}, "HA3 7AL": {"lat": 51.596985, "lon": -0.335513, "admin_district": "Harrow", "precision": "exact"}, "HG1 5LB": {"lat": 53.993561, "lon": -1.535855, "admin_district": "North Yorkshire", "precision": "exact"}, "M38 9WH": {"lat": 53.529484, "lon": -2.418752, "admin_district": "Salford", "precision": "exact"}, "NW2 3JX": {"lat": 51.552966, "lon": -0.211309, "admin_district": "Brent", "precision": "exact"}, "GU51 4PE": {"lat": 51.288192, "lon": -0.848591, "admin_district": "Hart", "precision": "exact"}, "BS14 8PG": {"lat": 51.411975, "lon": -2.546278, "admin_district": "Bristol, City of", "precision": "exact"}, "CH41 0DA": {"lat": 53.396927, "lon": -3.052413, "admin_district": "Wirral", "precision": "exact"}, "WR14 1JB": {"lat": 52.12574, "lon": -2.322036, "admin_district": "Malvern Hills", "precision": "exact"}, "SW6 1NN": {"lat": 51.484909, "lon": -0.201876, "admin_district": "Hammersmith and Fulham", "precision": "exact"}, "E11 3AW": {"lat": 51.570207, "lon": 0.01435, "admin_district": "Waltham Forest", "precision": "exact"}, "HA1 4LB": {"lat": 51.58548, "lon": -0.360213, "admin_district": "Harrow", "precision": "exact"}, "CH42 7LX": {"lat": 53.376038, "lon": -3.026389, "admin_district": "Wirral", "precision": "exact"}, "NW10 2PB": {"lat": 51.547606, "lon": -0.235058, "admin_district": "Brent", "precision": "exact"}, "B27 7UW": {"lat": 52.445853, "lon": -1.828371, "admin_district": "Birmingham", "precision": "exact"}, "IP5 3SL": {"lat": 52.061329, "lon": 1.272097, "admin_district": "East Suffolk", "precision": "exact"}, "S11 9AS": {"lat": 53.363955, "lon": -1.497754, "admin_district": "Sheffield", "precision": "exact"}, "LE1 7LT": {"lat": 52.626649, "lon": -1.123974, "admin_district": "Leicester", "precision": "exact"}, "NR12 8UG": {"lat": 52.712283, "lon": 1.4125, "admin_district": "North Norfolk", "precision": "exact"}, "RM6 4BB": {"lat": 51.569856, "lon": 0.127439, "admin_district": "Redbridge", "precision": "exact"}, "OL3 6HZ": {"lat": 53.545948, "lon": -2.007249, "admin_district": "Oldham", "precision": "exact"}, "OL4 5AA": {"lat": 53.537845, "lon": -2.072113, "admin_district": "Oldham", "precision": "exact"}, "OL4 5SR": {"lat": 53.537841, "lon": -2.063709, "admin_district": "Oldham", "precision": "exact"}, "OL9 7AP": {"lat": 53.533991, "lon": -2.132289, "admin_district": "Oldham", "precision": "exact"}, "SK5 8BS": {"lat": 53.427667, "lon": -2.132365, "admin_district": "Stockport", "precision": "exact"}, "M13 0QJ": {"lat": 53.452872, "lon": -2.196608, "admin_district": "Manchester", "precision": "exact"}, "M8 4JX": {"lat": 53.519577, "lon": -2.248391, "admin_district": "Manchester", "precision": "exact"}, "CM17 0DU": {"lat": 51.784213, "lon": 0.139105, "admin_district": "Harlow", "precision": "exact"}, "TQ1 2AL": {"lat": 50.46073, "lon": -3.522242, "admin_district": "Torbay", "precision": "exact"}, "N22 7XH": {"lat": 51.599573, "lon": -0.132733, "admin_district": "Haringey", "precision": "exact"}, "PO32 6RD": {"lat": 50.758395, "lon": -1.289498, "admin_district": "Isle of Wight", "precision": "exact"}, "BS31 1DP": {"lat": 51.416737, "lon": -2.498621, "admin_district": "Bath and North East Somerset", "precision": "exact"}, "SW12 9AA": {"lat": 51.445891, "lon": -0.150478, "admin_district": "Wandsworth", "precision": "exact"}, "HP11 2BE": {"lat": 51.628823, "lon": -0.748763, "admin_district": "Buckinghamshire", "precision": "exact"}, "S71 4BY": {"lat": 53.601112, "lon": -1.445719, "admin_district": "Barnsley", "precision": "exact"}, "N2 9ED": {"lat": 51.590864, "lon": -0.164374, "admin_district": "Barnet", "precision": "exact"}, "SW13 0LF": {"lat": 51.472281, "lon": -0.246837, "admin_district": "Richmond upon Thames", "precision": "exact"}, "SN2 7RD": {"lat": 51.586576, "lon": -1.772005, "admin_district": "Swindon", "precision": "exact"}, "ME13 8PG": {"lat": 51.31318, "lon": 0.890378, "admin_district": "Swale", "precision": "exact"}, "DN1 2EX": {"lat": 53.524724, "lon": -1.125375, "admin_district": "Doncaster", "precision": "exact"}, "CB22 3GN": {"lat": 52.148526, "lon": 0.194195, "admin_district": "South Cambridgeshire", "precision": "exact"}, "CB1 7PN": {"lat": 52.178773, "lon": 0.14598, "admin_district": "Cambridge", "precision": "exact"}, "LS16 5LG": {"lat": 53.831086, "lon": -1.586833, "admin_district": "Leeds", "precision": "exact"}, "BH2 6NG": {"lat": 50.724056, "lon": -1.878217, "admin_district": "Bournemouth, Christchurch and Poole", "precision": "exact"}, "M46 0BF": {"lat": 53.52343, "lon": -2.49295, "admin_district": "Wigan", "precision": "exact"}, "B73 5XE": {"lat": 52.549951, "lon": -1.844112, "admin_district": "Birmingham", "precision": "exact"}, "BH16 5EF": {"lat": 50.734963, "lon": -2.025945, "admin_district": "Dorset", "precision": "exact"}, "BR5 1LY": {"lat": 51.389696, "lon": 0.075576, "admin_district": "Bromley", "precision": "exact"}, "TW3 4NH": {"lat": 51.474543, "lon": -0.385593, "admin_district": "Hounslow", "precision": "exact"}, "SK4 3BY": {"lat": 53.4129, "lon": -2.20223, "admin_district": "Stockport", "precision": "exact"}, "B30 3EL": {"lat": 52.413665, "lon": -1.93132, "admin_district": "Birmingham", "precision": "exact"}, "OX25 5BZ": {"lat": 51.928309, "lon": -1.254492, "admin_district": "Cherwell", "precision": "exact"}, "NN11 4BG": {"lat": 52.258047, "lon": -1.16128, "admin_district": "West Northamptonshire", "precision": "exact"}, "PE15 0PR": {"lat": 52.5758, "lon": 0.080903, "admin_district": "Fenland", "precision": "exact"}, "SW18 3HU": {"lat": 51.449138, "lon": -0.174641, "admin_district": "Wandsworth", "precision": "exact"}, "W1G 6AS": {"lat": 51.52174, "lon": -0.148474, "admin_district": "Westminster", "precision": "exact"}, "NN6 7RE": {"lat": 52.303025, "lon": -1.077834, "admin_district": "West Northamptonshire", "precision": "exact"}, "SW2 5XF": {"lat": 51.44928993243246, "lon": -0.11979437644787662, "admin_district": null, "precision": "outcode_fallback"}, "PE28 0SR": {"lat": 52.280808, "lon": -0.312256, "admin_district": "Huntingdonshire", "precision": "exact"}, "NE22 5TZ": {"lat": 55.131014, "lon": -1.598757, "admin_district": "Northumberland", "precision": "exact"}, "SK8 7BG": {"lat": 53.372824, "lon": -2.183012, "admin_district": "Stockport", "precision": "exact"}, "BL3 5QE": {"lat": 53.568959, "lon": -2.460817, "admin_district": "Bolton", "precision": "exact"}, "PO17 5GU": {"lat": 50.90463, "lon": -1.187633, "admin_district": "Winchester", "precision": "exact"}, "NR7 9XD": {"lat": 52.641061, "lon": 1.337032, "admin_district": "Norwich", "precision": "exact"}, "W5 2TD": {"lat": 51.513754, "lon": -0.306828, "admin_district": "Ealing", "precision": "exact"}, "S10 2TT": {"lat": 53.380152, "lon": -1.491145, "admin_district": "Sheffield", "precision": "exact"}, "CW8 4BA": {"lat": 53.252419, "lon": -2.535105, "admin_district": "Cheshire West and Chester", "precision": "exact"}, "CH66 4PE": {"lat": 53.283798, "lon": -2.946164, "admin_district": "Cheshire West and Chester", "precision": "exact"}, "GU2 4JN": {"lat": 51.23526, "lon": -0.582204, "admin_district": "Guildford", "precision": "exact"}, "CO4 3JE": {"lat": 51.89687, "lon": 0.938144, "admin_district": "Colchester", "precision": "exact"}, "CO6 1TU": {"lat": 51.871696, "lon": 0.686968, "admin_district": "Braintree", "precision": "exact"}, "EC4R 2SU": {"lat": 51.51109, "lon": -0.091115, "admin_district": "City of London", "precision": "exact"}, "TN13 1HJ": {"lat": 51.272128, "lon": 0.18864, "admin_district": "Sevenoaks", "precision": "exact"}, "WA5 1UB": {"lat": 53.393648, "lon": -2.612396, "admin_district": "Warrington", "precision": "exact"}, "BB2 6JW": {"lat": 53.75196, "lon": -2.502885, "admin_district": "Blackburn with Darwen", "precision": "exact"}, "PR2 6RH": {"lat": 53.783219, "lon": -2.654009, "admin_district": "Preston", "precision": "exact"}, "DH1 4EL": {"lat": 54.775227, "lon": -1.586671, "admin_district": "County Durham", "precision": "exact"}, "L36 3SA": {"lat": 53.423966, "lon": -2.858952, "admin_district": "Knowsley", "precision": "exact"}, "NE13 6LW": {"lat": 55.048935, "lon": -1.623804, "admin_district": "North Tyneside", "precision": "exact"}, "CB5 8DT": {"lat": 52.208082, "lon": 0.133883, "admin_district": "Cambridge", "precision": "exact"}, "TN6 1DG": {"lat": 51.058464, "lon": 0.162922, "admin_district": "Wealden", "precision": "exact"}, "ME20 7LQ": {"lat": 51.297276, "lon": 0.46967, "admin_district": "Tonbridge and Malling", "precision": "exact"}, "LS21 3AE": {"lat": 53.904852, "lon": -1.693077, "admin_district": "Leeds", "precision": "exact"}, "UB5 5HE": {"lat": 51.544979, "lon": -0.371838, "admin_district": "Ealing", "precision": "exact"}, "SP4 7HQ": {"lat": 51.171428, "lon": -1.778563, "admin_district": "Wiltshire", "precision": "exact"}, "CT1 2NA": {"lat": 51.276394, "lon": 1.083468, "admin_district": "Canterbury", "precision": "exact"}, "DE23 1PX": {"lat": 52.890847, "lon": -1.505032, "admin_district": "Derby", "precision": "exact"}, "W2 5SH": {"lat": 51.515545, "lon": -0.191791, "admin_district": "Westminster", "precision": "exact"}, "RG24 8LT": {"lat": 51.289583, "lon": -1.057397, "admin_district": "Basingstoke and Deane", "precision": "exact"}, "RG6 1JS": {"lat": 51.445392, "lon": -0.934013, "admin_district": "Reading", "precision": "exact"}, "EX7 9HB": {"lat": 50.58143, "lon": -3.47148, "admin_district": "Teignbridge", "precision": "exact"}, "E1W 1NR": {"lat": 51.504053, "lon": -0.063412, "admin_district": "Tower Hamlets", "precision": "exact"}, "DE15 9AW": {"lat": 52.795149, "lon": -1.621335, "admin_district": "East Staffordshire", "precision": "exact"}, "CR0 7AB": {"lat": 51.380902, "lon": -0.070857, "admin_district": "Croydon", "precision": "exact"}, "E1 7BS": {"lat": 51.515433, "lon": -0.07678, "admin_district": "City of London", "precision": "exact"}, "RH1 6PS": {"lat": 51.233825, "lon": -0.171829, "admin_district": "Reigate and Banstead", "precision": "exact"}, "N2 8AX": {"lat": 51.589622, "lon": -0.166662, "admin_district": "Barnet", "precision": "exact"}, "S70 1TS": {"lat": 53.548614, "lon": -1.472014, "admin_district": "Barnsley", "precision": "exact"}, "RH19 3EA": {"lat": 51.135477, "lon": 0.00169, "admin_district": "Mid Sussex", "precision": "exact"}, "LS6 3HA": {"lat": 53.819007, "lon": -1.587088, "admin_district": "Leeds", "precision": "exact"}, "SN8 1HQ": {"lat": 51.418225, "lon": -1.73337, "admin_district": "Wiltshire", "precision": "exact"}, "SW3 1PA": {"lat": 51.498162, "lon": -0.165739, "admin_district": "Kensington and Chelsea", "precision": "exact"}, "PL12 4DW": {"lat": 50.408456, "lon": -4.211996, "admin_district": "Cornwall", "precision": "exact"}, "L19 2LW": {"lat": 53.353926, "lon": -2.89683, "admin_district": "Liverpool", "precision": "exact"}, "NE45 5AA": {"lat": 54.974605, "lon": -2.018647, "admin_district": "Northumberland", "precision": "exact"}, "HA2 6ND": {"lat": 51.601438, "lon": -0.355407, "admin_district": "Harrow", "precision": "exact"}, "SN25 3DQ": {"lat": 51.582977, "lon": -1.800355, "admin_district": "Swindon", "precision": "exact"}, "W8 6TE": {"lat": 51.50119413062418, "lon": -0.19424533817126252, "admin_district": null, "precision": "outcode_fallback"}, "TR26 2SF": {"lat": 50.193503, "lon": -5.465119, "admin_district": "Cornwall", "precision": "exact"}, "SW1X 7JN": {"lat": 51.502497, "lon": -0.157136, "admin_district": "Westminster", "precision": "exact"}, "ME20 7LN": {"lat": 51.299473, "lon": 0.468238, "admin_district": "Tonbridge and Malling", "precision": "exact"}, "W2 3QA": {"lat": 51.513734, "lon": -0.179324, "admin_district": "Westminster", "precision": "exact"}, "LE2 8PG": {"lat": 52.593529, "lon": -1.15853, "admin_district": "Leicester", "precision": "exact"}, "CR2 8PB": {"lat": 51.342448, "lon": -0.06153, "admin_district": "Croydon", "precision": "exact"}, "CM21 9AR": {"lat": 51.812739, "lon": 0.149407, "admin_district": "East Hertfordshire", "precision": "exact"}, "MK45 4LL": {"lat": 51.967238, "lon": -0.427454, "admin_district": "Central Bedfordshire", "precision": "exact"}, "SN1 5EL": {"lat": 51.559539, "lon": -1.796578, "admin_district": "Swindon", "precision": "exact"}, "TN31 7DB": {"lat": 50.949336, "lon": 0.730634, "admin_district": "Rother", "precision": "exact"}, "TS1 3BA": {"lat": 54.572089, "lon": -1.234709, "admin_district": "Middlesbrough", "precision": "exact"}, "TN17 3HF": {"lat": 51.096315, "lon": 0.536645, "admin_district": "Tunbridge Wells", "precision": "exact"}, "L2 8TD": {"lat": 53.406691, "lon": -2.993416, "admin_district": "Liverpool", "precision": "exact"}, "HA7 4TH": {"lat": 51.611627, "lon": -0.303665, "admin_district": "Harrow", "precision": "exact"}, "BD20 8TQ": {"lat": 53.901036, "lon": -1.99286, "admin_district": "North Yorkshire", "precision": "exact"}, "N10 3DU": {"lat": 51.591054, "lon": -0.14788, "admin_district": "Haringey", "precision": "exact"}, "CR0 7LR": {"lat": 51.377577, "lon": -0.060621, "admin_district": "Croydon", "precision": "exact"}, "HA1 1BE": {"lat": 51.58023, "lon": -0.335996, "admin_district": "Harrow", "precision": "exact"}, "GL50 3DB": {"lat": 51.90035, "lon": -2.078211, "admin_district": "Cheltenham", "precision": "exact"}, "NG5 4JH": {"lat": 52.992468, "lon": -1.131004, "admin_district": "Gedling", "precision": "exact"}, "SK11 6DP": {"lat": 53.261002, "lon": -2.130858, "admin_district": "Cheshire East", "precision": "exact"}, "EC4N 7AR": {"lat": 51.51253, "lon": -0.088418, "admin_district": "City of London", "precision": "exact"}, "CT21 5NT": {"lat": 51.07107, "lon": 1.084131, "admin_district": "Folkestone and Hythe", "precision": "exact"}, "ME15 9NB": {"lat": 51.24434, "lon": 0.553825, "admin_district": "Maidstone", "precision": "exact"}, "ME10 2AR": {"lat": 51.349239, "lon": 0.732203, "admin_district": "Swale", "precision": "exact"}, "CR4 3NH": {"lat": 51.404767, "lon": -0.164273, "admin_district": "Merton", "precision": "exact"}, "NW2 4RA": {"lat": 51.548238, "lon": -0.222124, "admin_district": "Brent", "precision": "exact"}, "WF12 9HH": {"lat": 53.673152, "lon": -1.638845, "admin_district": "Kirklees", "precision": "exact"}, "AL1 4JE": {"lat": 51.751806, "lon": -0.322323, "admin_district": "St Albans", "precision": "exact"}, "CW11 4NE": {"lat": 53.14358, "lon": -2.367103, "admin_district": "Cheshire East", "precision": "exact"}, "LS1 6AZ": {"lat": 53.797898, "lon": -1.541128, "admin_district": "Leeds", "precision": "exact"}, "LN1 1XP": {"lat": 53.230242, "lon": -0.544291, "admin_district": "Lincoln", "precision": "exact"}, "B98 9AA": {"lat": 52.31642, "lon": -1.906647, "admin_district": "Redditch", "precision": "exact"}, "W1U 3HX": {"lat": 51.517476, "lon": -0.15238, "admin_district": "Westminster", "precision": "exact"}, "M8 9JE": {"lat": 53.51154, "lon": -2.245027, "admin_district": "Manchester", "precision": "exact"}, "LE2 4LA": {"lat": 52.600174, "lon": -1.081182, "admin_district": "Oadby and Wigston", "precision": "exact"}, "W1G 9PP": {"lat": 51.518669, "lon": -0.146494, "admin_district": "Westminster", "precision": "exact"}, "HA1 2BU": {"lat": 51.581145, "lon": -0.332051, "admin_district": "Harrow", "precision": "exact"}, "DT8 3AZ": {"lat": 50.808741, "lon": -2.739865, "admin_district": "Dorset", "precision": "exact"}, "SE17 3BZ": {"lat": 51.489935, "lon": -0.098064, "admin_district": "Southwark", "precision": "exact"}, "N7 7NS": {"lat": 51.560421, "lon": -0.114268, "admin_district": "Islington", "precision": "exact"}, "SK9 1LS": {"lat": 53.323877, "lon": -2.231415, "admin_district": "Cheshire East", "precision": "exact"}, "SO30 2HD": {"lat": 50.91519, "lon": -1.251562, "admin_district": "Winchester", "precision": "exact"}, "OL8 2QL": {"lat": 53.520807, "lon": -2.103486, "admin_district": "Oldham", "precision": "exact"}, "SP5 3ND": {"lat": 50.991825, "lon": -1.755368, "admin_district": "Wiltshire", "precision": "exact"}, "BA1 3JZ": {"lat": 51.384454, "lon": -2.390164, "admin_district": "Bath and North East Somerset", "precision": "exact"}, "BD17 7GA": {"lat": 53.841274, "lon": -1.765728, "admin_district": "Bradford", "precision": "exact"}, "RH12 3HB": {"lat": 51.090068, "lon": -0.450618, "admin_district": "Horsham", "precision": "exact"}, "NR32 1UR": {"lat": 52.479029, "lon": 1.757724, "admin_district": "East Suffolk", "precision": "exact"}, "DA7 4QX": {"lat": 51.465997, "lon": 0.133835, "admin_district": "Bexley", "precision": "exact"}, "E3 5ES": {"lat": 51.532709, "lon": -0.030272, "admin_district": "Tower Hamlets", "precision": "exact"}, "B91 3LT": {"lat": 52.41400739742096, "lon": -1.783534138335289, "admin_district": null, "precision": "outcode_fallback"}, "RG40 4JD": {"lat": 51.37723, "lon": -0.857478, "admin_district": "Wokingham", "precision": "exact"}, "BD3 0JF": {"lat": 53.804349, "lon": -1.742824, "admin_district": "Bradford", "precision": "exact"}, "LE12 8BS": {"lat": 52.744599, "lon": -1.167831, "admin_district": "Charnwood", "precision": "exact"}, "SL5 8HN": {"lat": 51.41703, "lon": -0.698873, "admin_district": "Bracknell Forest", "precision": "exact"}, "CH1 1NZ": {"lat": 53.188603, "lon": -2.892585, "admin_district": "Cheshire West and Chester", "precision": "exact"}, "NW10 3JL": {"lat": 51.532967, "lon": -0.218438, "admin_district": "Brent", "precision": "exact"}, "CB23 8EH": {"lat": 52.252951, "lon": 0.018385, "admin_district": "South Cambridgeshire", "precision": "exact"}, "EN5 4BE": {"lat": 51.652817, "lon": -0.202466, "admin_district": "Barnet", "precision": "exact"}, "BH22 0JD": {"lat": 50.826935, "lon": -1.889125, "admin_district": "Dorset", "precision": "exact"}, "ME12 1AB": {"lat": 51.440244, "lon": 0.763162, "admin_district": "Swale", "precision": "exact"}, "DA16 3EB": {"lat": 51.46845, "lon": 0.110106, "admin_district": "Bexley", "precision": "exact"}, "KT1 4DB": {"lat": 51.412928, "lon": -0.311031, "admin_district": "Richmond upon Thames", "precision": "exact"}, "LS11 5LE": {"lat": 53.766497, "lon": -1.556322, "admin_district": "Leeds", "precision": "exact"}, "SY14 8NR": {"lat": 53.02088, "lon": -2.766348, "admin_district": "Cheshire West and Chester", "precision": "exact"}, "HA5 5LU": {"lat": 51.593595, "lon": -0.381173, "admin_district": "Harrow", "precision": "exact"}, "SW1X 7LY": {"lat": 51.50231, "lon": -0.154406, "admin_district": "Westminster", "precision": "exact"}, "W7 2AT": {"lat": 51.499959, "lon": -0.328058, "admin_district": "Ealing", "precision": "exact"}, "OL6 6QR": {"lat": 53.486383, "lon": -2.077121, "admin_district": "Tameside", "precision": "exact"}, "L25 0LQ": {"lat": 53.361732, "lon": -2.852049, "admin_district": "Knowsley", "precision": "exact"}, "CH1 1DA": {"lat": 53.18985, "lon": -2.888091, "admin_district": "Cheshire West and Chester", "precision": "exact"}, "SG13 7ED": {"lat": 51.798916, "lon": -0.066522, "admin_district": "East Hertfordshire", "precision": "exact"}, "BS8 1HP": {"lat": 51.455528, "lon": -2.605448, "admin_district": "Bristol, City of", "precision": "exact"}, "BR7 5NP": {"lat": 51.407679, "lon": 0.055827, "admin_district": "Bromley", "precision": "exact"}, "TS5 5HR": {"lat": 54.552904, "lon": -1.262603, "admin_district": "Middlesbrough", "precision": "exact"}, "DA1 1EZ": {"lat": 51.443633, "lon": 0.217612, "admin_district": "Dartford", "precision": "exact"}, "TN13 1XA": {"lat": 51.271679, "lon": 0.192963, "admin_district": "Sevenoaks", "precision": "exact"}, "TS26 0TB": {"lat": 54.696228, "lon": -1.23824, "admin_district": "Hartlepool", "precision": "exact"}, "CR4 2PF": {"lat": 51.405159, "lon": -0.162848, "admin_district": "Merton", "precision": "exact"}, "NN17 5GT": {"lat": 52.507442, "lon": -0.639056, "admin_district": "North Northamptonshire", "precision": "exact"}, "IP1 3QJ": {"lat": 52.060272, "lon": 1.151264, "admin_district": "Ipswich", "precision": "exact"}, "W13 8RY": {"lat": 51.512341, "lon": -0.31926, "admin_district": "Ealing", "precision": "exact"}, "BN1 4GB": {"lat": 50.827604, "lon": -0.135685, "admin_district": "Brighton and Hove", "precision": "exact"}, "WC1X 8QD": {"lat": 51.529523, "lon": -0.120462, "admin_district": "Camden", "precision": "exact"}, "KT4 8SX": {"lat": 51.37491, "lon": -0.234983, "admin_district": "Sutton", "precision": "exact"}, "TN13 1JF": {"lat": 51.269057, "lon": 0.193239, "admin_district": "Sevenoaks", "precision": "exact"}, "KT4 8EB": {"lat": 51.37768, "lon": -0.240351, "admin_district": "Sutton", "precision": "exact"}, "PR7 4HE": {"lat": 53.611218, "lon": -2.604824, "admin_district": "Chorley", "precision": "exact"}, "HA8 6LD": {"lat": 51.609604, "lon": -0.280849, "admin_district": "Harrow", "precision": "exact"}, "WA12 9QB": {"lat": 53.455238, "lon": -2.638251, "admin_district": "St. Helens", "precision": "exact"}, "HP7 9NU": {"lat": 51.667727, "lon": -0.566619, "admin_district": "Buckinghamshire", "precision": "exact"}, "W1G 8GE": {"lat": 51.518316, "lon": -0.148036, "admin_district": "Westminster", "precision": "exact"}, "SY12 0EU": {"lat": 52.90786, "lon": -2.891929, "admin_district": "Shropshire", "precision": "exact"}, "WR9 7BE": {"lat": 52.263283, "lon": -2.148785, "admin_district": "Wychavon", "precision": "exact"}, "W4 4PU": {"lat": 51.492225, "lon": -0.261846, "admin_district": "Hounslow", "precision": "exact"}, "WA11 0LE": {"lat": 53.468774, "lon": -2.658173, "admin_district": "St. Helens", "precision": "exact"}, "BB2 4DY": {"lat": 53.732715, "lon": -2.501185, "admin_district": "Blackburn with Darwen", "precision": "exact"}, "PR5 6TP": {"lat": 53.729269, "lon": -2.661219, "admin_district": "South Ribble", "precision": "exact"}, "RH4 1QT": {"lat": 51.233739, "lon": -0.327884, "admin_district": "Mole Valley", "precision": "exact"}, "TN28 8BS": {"lat": 50.987471, "lon": 0.942958, "admin_district": "Folkestone and Hythe", "precision": "exact"}, "S11 9PF": {"lat": 53.35827, "lon": -1.509766, "admin_district": "Sheffield", "precision": "exact"}, "SW6 5UL": {"lat": 51.476971, "lon": -0.201986, "admin_district": "Hammersmith and Fulham", "precision": "exact"}, "TW4 7DN": {"lat": 51.472793, "lon": -0.386547, "admin_district": "Hounslow", "precision": "exact"}, "HA6 1QN": {"lat": 51.601791, "lon": -0.407032, "admin_district": "Hillingdon", "precision": "exact"}, "LE17 4NG": {"lat": 52.458639, "lon": -1.198511, "admin_district": "Harborough", "precision": "exact"}, "TN8 5NB": {"lat": 51.201219, "lon": 0.0637, "admin_district": "Sevenoaks", "precision": "exact"}, "NE3 1DH": {"lat": 55.006891, "lon": -1.621807, "admin_district": "Newcastle upon Tyne", "precision": "exact"}, "NE20 9BD": {"lat": 55.050043, "lon": -1.7386, "admin_district": "Northumberland", "precision": "exact"}, "M33 6QX": {"lat": 53.421027, "lon": -2.333633, "admin_district": "Trafford", "precision": "exact"}, "YO7 1HA": {"lat": 54.232902, "lon": -1.34327, "admin_district": "North Yorkshire", "precision": "exact"}, "BA7 7BJ": {"lat": 51.088952, "lon": -2.515049, "admin_district": "Somerset", "precision": "exact"}, "DN32 9QR": {"lat": 53.555287, "lon": -0.075128, "admin_district": "North East Lincolnshire", "precision": "exact"}, "M34 7GR": {"lat": 53.441462, "lon": -2.097799, "admin_district": "Tameside", "precision": "exact"}, "EC1V 9HX": {"lat": 51.524096, "lon": -0.096784, "admin_district": "Islington", "precision": "exact"}, "L25 4RS": {"lat": 53.389219, "lon": -2.873394, "admin_district": "Liverpool", "precision": "exact"}, "YO31 9HU": {"lat": 53.986772, "lon": -1.068744, "admin_district": "York", "precision": "exact"}, "SG5 1BY": {"lat": 51.949319, "lon": -0.274829, "admin_district": "North Hertfordshire", "precision": "exact"}, "NN13 7EP": {"lat": 52.02608, "lon": -1.149853, "admin_district": "West Northamptonshire", "precision": "exact"}, "M2 7LQ": {"lat": 53.48156, "lon": -2.246707, "admin_district": "Manchester", "precision": "exact"}, "SE16 2XB": {"lat": 51.498663, "lon": -0.054506, "admin_district": "Southwark", "precision": "exact"}, "NN15 6WJ": {"lat": 52.374517, "lon": -0.71326, "admin_district": "North Northamptonshire", "precision": "exact"}, "N3 2QS": {"lat": 51.598859, "lon": -0.18353, "admin_district": "Barnet", "precision": "exact"}, "SO16 5DT": {"lat": 50.936569, "lon": -1.447619, "admin_district": "Southampton", "precision": "exact"}, "SK17 6JW": {"lat": 53.25495, "lon": -1.91743, "admin_district": "High Peak", "precision": "exact"}, "BH8 8JL": {"lat": 50.732277, "lon": -1.871196, "admin_district": "Bournemouth, Christchurch and Poole", "precision": "exact"}, "W3 8EB": {"lat": 51.507611, "lon": -0.27704, "admin_district": "Ealing", "precision": "exact"}, "SE6 3HQ": {"lat": 51.431071, "lon": -0.025902, "admin_district": "Lewisham", "precision": "exact"}, "NG5 6LF": {"lat": 53.000934, "lon": -1.130774, "admin_district": "Gedling", "precision": "exact"}, "SE22 0RR": {"lat": 51.453495, "lon": -0.062314, "admin_district": "Southwark", "precision": "exact"}, "PE7 3LP": {"lat": 52.51379, "lon": -0.258323, "admin_district": "Huntingdonshire", "precision": "exact"}, "DT4 7ED": {"lat": 50.614732, "lon": -2.452927, "admin_district": "Dorset", "precision": "exact"}, "E16 1YL": {"lat": 51.508645, "lon": 0.016245, "admin_district": "Newham", "precision": "exact"}, "PO1 4ND": {"lat": 50.79946113005463, "lon": -1.0896570393442635, "admin_district": null, "precision": "outcode_fallback"}, "BD9 4QU": {"lat": 53.808476, "lon": -1.774567, "admin_district": "Bradford", "precision": "exact"}, "EX3 0HQ": {"lat": 50.684227, "lon": -3.466385, "admin_district": "Exeter", "precision": "exact"}, "N7 0BT": {"lat": 51.549982, "lon": -0.130667, "admin_district": "Camden", "precision": "exact"}, "NE11 0JU": {"lat": 54.940343, "lon": -1.62875, "admin_district": "Gateshead", "precision": "exact"}, "MK40 1DN": {"lat": 52.135259, "lon": -0.475625, "admin_district": "Bedford", "precision": "exact"}, "PO15 7AL": {"lat": 50.879577, "lon": -1.241586, "admin_district": "Winchester", "precision": "exact"}, "N12 0NU": {"lat": 51.611158, "lon": -0.17524, "admin_district": "Barnet", "precision": "exact"}, "DY6 9HS": {"lat": 52.498688, "lon": -2.169895, "admin_district": "Dudley", "precision": "exact"}, "EC3R 7NE": {"lat": 51.510472, "lon": -0.080232, "admin_district": "City of London", "precision": "exact"}, "W1G 9LQ": {"lat": 51.518684, "lon": -0.145182, "admin_district": "Westminster", "precision": "exact"}, "HA6 2QB": {"lat": 51.611807, "lon": -0.426309, "admin_district": "Hillingdon", "precision": "exact"}, "BB3 1ET": {"lat": 53.705362, "lon": -2.47747, "admin_district": "Blackburn with Darwen", "precision": "exact"}, "B33 9LY": {"lat": 52.488202, "lon": -1.793097, "admin_district": "Birmingham", "precision": "exact"}, "DT4 7PL": {"lat": 50.619319, "lon": -2.455134, "admin_district": "Dorset", "precision": "exact"}, "NE1 5AE": {"lat": 54.972702, "lon": -1.614331, "admin_district": "Newcastle upon Tyne", "precision": "exact"}, "L22 4QF": {"lat": 53.479259, "lon": -3.023031, "admin_district": "Sefton", "precision": "exact"}, "RH16 4AH": {"lat": 50.999907, "lon": -0.11254, "admin_district": "Mid Sussex", "precision": "exact"}, "CV34 6AB": {"lat": 52.278953, "lon": -1.591251, "admin_district": "Warwick", "precision": "exact"}, "M26 4FA": {"lat": 53.565802, "lon": -2.334226, "admin_district": "Bury", "precision": "exact"}, "KT14 6NE": {"lat": 51.33916, "lon": -0.505496, "admin_district": "Woking", "precision": "exact"}, "DT11 7PS": {"lat": 50.858392, "lon": -2.164098, "admin_district": "Dorset", "precision": "exact"}, "W1G 8GF": {"lat": 51.518388, "lon": -0.148062, "admin_district": "Westminster", "precision": "exact"}, "DN21 2LY": {"lat": 53.401188, "lon": -0.778615, "admin_district": "West Lindsey", "precision": "exact"}, "OL1 1TE": {"lat": 53.541369, "lon": -2.107278, "admin_district": "Oldham", "precision": "exact"}, "CR5 2BB": {"lat": 51.323376, "lon": -0.135375, "admin_district": "Croydon", "precision": "exact"}, "SW3 2LY": {"lat": 51.493831, "lon": -0.165956, "admin_district": "Kensington and Chelsea", "precision": "exact"}, "M2 4AF": {"lat": 53.479816, "lon": -2.242373, "admin_district": "Manchester", "precision": "exact"}, "OL9 9SB": {"lat": 53.549173, "lon": -2.160665, "admin_district": "Oldham", "precision": "exact"}, "WF8 1QT": {"lat": 53.693033, "lon": -1.305351, "admin_district": "Wakefield", "precision": "exact"}, "RG1 1DB": {"lat": 51.456855, "lon": -0.971152, "admin_district": "Reading", "precision": "exact"}, "TF9 3DD": {"lat": 52.90296, "lon": -2.486038, "admin_district": "Shropshire", "precision": "exact"}, "EX2 6HE": {"lat": 50.70103, "lon": -3.495146, "admin_district": "Exeter", "precision": "exact"}, "NG16 2NB": {"lat": 52.996156, "lon": -1.251855, "admin_district": "Broxtowe", "precision": "exact"}, "RH10 1ND": {"lat": 51.119792, "lon": -0.163758, "admin_district": "Crawley", "precision": "exact"}, "M20 1JP": {"lat": 53.429442, "lon": -2.239062, "admin_district": "Manchester", "precision": "exact"}, "LS17 9LQ": {"lat": 53.900508, "lon": -1.512567, "admin_district": "Leeds", "precision": "exact"}, "TS21 3AT": {"lat": 54.65377, "lon": -1.448165, "admin_district": "County Durham", "precision": "exact"}, "M22 4FZ": {"lat": 53.407775, "lon": -2.258648, "admin_district": "Manchester", "precision": "exact"}, "PO8 8XJ": {"lat": 50.896923, "lon": -1.017057, "admin_district": "Havant", "precision": "exact"}, "WR8 0QL": {"lat": 52.057692, "lon": -2.228945, "admin_district": "Malvern Hills", "precision": "exact"}, "DE14 2UE": {"lat": 52.803992, "lon": -1.65892, "admin_district": "East Staffordshire", "precision": "exact"}, "SO18 5FL": {"lat": 50.915452, "lon": -1.346186, "admin_district": "Southampton", "precision": "exact"}, "M50 1DR": {"lat": 53.477276, "lon": -2.31084, "admin_district": "Salford", "precision": "exact"}, "OX18 3JN": {"lat": 51.75739, "lon": -1.598594, "admin_district": "West Oxfordshire", "precision": "exact"}, "WA14 2QD": {"lat": 53.384064, "lon": -2.352872, "admin_district": "Trafford", "precision": "exact"}, "HX2 9HD": {"lat": 53.75188, "lon": -1.891883, "admin_district": "Calderdale", "precision": "exact"}, "CT10 1JB": {"lat": 51.359873, "lon": 1.436557, "admin_district": "Thanet", "precision": "exact"}, "LS17 6DW": {"lat": 53.845248, "lon": -1.534472, "admin_district": "Leeds", "precision": "exact"}, "KT13 8NZ": {"lat": 51.373596, "lon": -0.45791, "admin_district": "Elmbridge", "precision": "exact"}, "S40 4SP": {"lat": 53.239479, "lon": -1.433493, "admin_district": "Chesterfield", "precision": "exact"}, "NR31 6RQ": {"lat": 52.581069, "lon": 1.728947, "admin_district": "Great Yarmouth", "precision": "exact"}, "NW9 9EG": {"lat": 51.584844, "lon": -0.278666, "admin_district": "Brent", "precision": "exact"}, "NW9 9QD": {"lat": 51.585564, "lon": -0.281829, "admin_district": "Brent", "precision": "exact"}, "EC2N 2JJ": {"lat": 51.516698, "lon": -0.085937, "admin_district": "City of London", "precision": "exact"}, "HP20 2LH": {"lat": 51.81877, "lon": -0.81422, "admin_district": "Buckinghamshire", "precision": "exact"}, "LS16 5LN": {"lat": 53.834246, "lon": -1.59367, "admin_district": "Leeds", "precision": "exact"}, "IG10 1RL": {"lat": 51.65123, "lon": 0.057911, "admin_district": "Epping Forest", "precision": "exact"}, "BL9 0ST": {"lat": 53.588515, "lon": -2.300612, "admin_district": "Bury", "precision": "exact"}, "S7 1FJ": {"lat": 53.362046, "lon": -1.478062, "admin_district": "Sheffield", "precision": "exact"}, "MK17 8PL": {"lat": 52.013664, "lon": -0.650102, "admin_district": "Milton Keynes", "precision": "exact"}, "N18 1ND": {"lat": 51.616734, "lon": -0.085546, "admin_district": "Enfield", "precision": "exact"}, "NG5 5NX": {"lat": 53.002095, "lon": -1.159734, "admin_district": "Nottingham", "precision": "exact"}, "DY10 2AW": {"lat": 52.389487, "lon": -2.250117, "admin_district": "Wyre Forest", "precision": "exact"}, "TW9 1YJ": {"lat": 51.462028, "lon": -0.294995, "admin_district": "Richmond upon Thames", "precision": "exact"}, "CR8 2NE": {"lat": 51.341122, "lon": -0.11474, "admin_district": "Croydon", "precision": "exact"}, "YO1 8AW": {"lat": 53.961121, "lon": -1.082759, "admin_district": "York", "precision": "exact"}, "E13 9EU": {"lat": 51.530024, "lon": 0.035341, "admin_district": "Newham", "precision": "exact"}, "CM6 1AH": {"lat": 51.871521, "lon": 0.363247, "admin_district": "Uttlesford", "precision": "exact"}, "N13 6JP": {"lat": 51.609773, "lon": -0.107632, "admin_district": "Enfield", "precision": "exact"}, "B90 2AL": {"lat": 52.401399, "lon": -1.823809, "admin_district": "Solihull", "precision": "exact"}, "YO12 7HT": {"lat": 54.288525, "lon": -0.402895, "admin_district": "North Yorkshire", "precision": "exact"}, "LE2 7LN": {"lat": 52.623109, "lon": -1.135183, "admin_district": "Leicester", "precision": "exact"}, "CR6 9RH": {"lat": 51.317628, "lon": -0.062662, "admin_district": "Tandridge", "precision": "exact"}, "BN2 6PH": {"lat": 50.837502, "lon": -0.073977, "admin_district": "Brighton and Hove", "precision": "exact"}, "DA6 8BW": {"lat": 51.458758, "lon": 0.131842, "admin_district": "Bexley", "precision": "exact"}, "HG2 8QZ": {"lat": 53.984851, "lon": -1.499612, "admin_district": "North Yorkshire", "precision": "exact"}, "MK2 2BU": {"lat": 51.997911, "lon": -0.715281, "admin_district": "Milton Keynes", "precision": "exact"}, "CR2 8JJ": {"lat": 51.351437, "lon": -0.039724, "admin_district": "Croydon", "precision": "exact"}, "M22 1UB": {"lat": 53.37996, "lon": -2.276472, "admin_district": "Manchester", "precision": "exact"}, "B1 3LD": {"lat": 52.484467, "lon": -1.912746, "admin_district": "Birmingham", "precision": "exact"}, "LE10 1AP": {"lat": 52.537408, "lon": -1.372336, "admin_district": "Hinckley and Bosworth", "precision": "exact"}, "S12 2SX": {"lat": 53.357575, "lon": -1.428038, "admin_district": "Sheffield", "precision": "exact"}, "KT9 1BD": {"lat": 51.372568, "lon": -0.292401, "admin_district": "Kingston upon Thames", "precision": "exact"}, "LS6 3AN": {"lat": 53.818944, "lon": -1.576943, "admin_district": "Leeds", "precision": "exact"}, "CV32 5SW": {"lat": 52.29458, "lon": -1.531035, "admin_district": "Warwick", "precision": "exact"}, "LA1 1RE": {"lat": 54.047061, "lon": -2.801648, "admin_district": "Lancaster", "precision": "exact"}, "HG1 5QU": {"lat": 53.989819, "lon": -1.534997, "admin_district": "North Yorkshire", "precision": "exact"}, "CT5 1DP": {"lat": 51.35585, "lon": 1.023212, "admin_district": "Canterbury", "precision": "exact"}, "WV10 6BA": {"lat": 52.620733, "lon": -2.129259, "admin_district": "Wolverhampton", "precision": "exact"}, "NW1 2NT": {"lat": 51.526804, "lon": -0.13835, "admin_district": "Camden", "precision": "exact"}, "HA6 2PX": {"lat": 51.612108, "lon": -0.425923, "admin_district": "Hillingdon", "precision": "exact"}, "SW1X 8JL": {"lat": 51.498962, "lon": -0.156529, "admin_district": "Westminster", "precision": "exact"}, "NE40 3HQ": {"lat": 54.972738, "lon": -1.761487, "admin_district": "Gateshead", "precision": "exact"}, "TW1 3RJ": {"lat": 51.448298, "lon": -0.328809, "admin_district": "Richmond upon Thames", "precision": "exact"}, "SM1 2DW": {"lat": 51.360001, "lon": -0.211281, "admin_district": "Sutton", "precision": "exact"}, "L16 0JE": {"lat": 53.393445, "lon": -2.886608, "admin_district": "Liverpool", "precision": "exact"}, "B72 1QP": {"lat": 52.556364, "lon": -1.826788, "admin_district": "Birmingham", "precision": "exact"}, "ST1 6BG": {"lat": 53.03827, "lon": -2.169675, "admin_district": "Stoke-on-Trent", "precision": "exact"}, "SW11 4PR": {"lat": 51.473035, "lon": -0.164443, "admin_district": "Wandsworth", "precision": "exact"}, "TW12 2AX": {"lat": 51.415254, "lon": -0.3666, "admin_district": "Richmond upon Thames", "precision": "exact"}, "TN37 7AG": {"lat": 50.874025, "lon": 0.553495, "admin_district": "Hastings", "precision": "exact"}, "MK15 0DU": {"lat": 52.048177, "lon": -0.711463, "admin_district": "Milton Keynes", "precision": "exact"}, "BH15 2BZ": {"lat": 50.723462, "lon": -1.977968, "admin_district": "Bournemouth, Christchurch and Poole", "precision": "exact"}, "KT15 3HD": {"lat": 51.347055, "lon": -0.501994, "admin_district": "Runnymede", "precision": "exact"}, "HG1 5HP": {"lat": 54.001158, "lon": -1.538807, "admin_district": "North Yorkshire", "precision": "exact"}, "BS4 2QB": {"lat": 51.434724, "lon": -2.56715, "admin_district": "Bristol, City of", "precision": "exact"}, "GL1 3HH": {"lat": 51.868749, "lon": -2.233171, "admin_district": "Gloucester", "precision": "exact"}, "CR3 6PB": {"lat": 51.283136, "lon": -0.078239, "admin_district": "Tandridge", "precision": "exact"}, "NG18 2BT": {"lat": 53.147342, "lon": -1.193281, "admin_district": "Mansfield", "precision": "exact"}, "BS39 7QE": {"lat": 51.306929, "lon": -2.502596, "admin_district": "Bath and North East Somerset", "precision": "exact"}, "BA1 2HA": {"lat": 51.383517, "lon": -2.362767, "admin_district": "Bath and North East Somerset", "precision": "exact"}, "M7 4UF": {"lat": 53.503178, "lon": -2.254853, "admin_district": "Salford", "precision": "exact"}, "BR4 0HW": {"lat": 51.389236, "lon": 0.001691, "admin_district": "Bromley", "precision": "exact"}, "NE13 9BH": {"lat": 55.031014, "lon": -1.650255, "admin_district": "Newcastle upon Tyne", "precision": "exact"}, "PL19 8AN": {"lat": 50.549198, "lon": -4.14788, "admin_district": "West Devon", "precision": "exact"}, "LE4 8EA": {"lat": 52.672402, "lon": -1.103731, "admin_district": "Charnwood", "precision": "exact"}, "B3 1RS": {"lat": 52.488157, "lon": -1.906701, "admin_district": "Birmingham", "precision": "exact"}, "UB3 3EF": {"lat": 51.509624, "lon": -0.415365, "admin_district": "Hillingdon", "precision": "exact"}, "EC4R 1EB": {"lat": 51.511377, "lon": -0.092732, "admin_district": "City of London", "precision": "exact"}, "SS3 9DT": {"lat": 51.530216, "lon": 0.78, "admin_district": "Southend-on-Sea", "precision": "exact"}, "ME12 2DF": {"lat": 51.433653, "lon": 0.798722, "admin_district": "Swale", "precision": "exact"}, "BN22 9QG": {"lat": 50.797515, "lon": 0.274741, "admin_district": "Eastbourne", "precision": "exact"}, "N8 8PL": {"lat": 51.581215, "lon": -0.123468, "admin_district": "Haringey", "precision": "exact"}, "DA6 7DU": {"lat": 51.456715, "lon": 0.146213, "admin_district": "Bexley", "precision": "exact"}, "B7 5DT": {"lat": 52.493757, "lon": -1.876614, "admin_district": "Birmingham", "precision": "exact"}, "LU7 2RN": {"lat": 51.919475, "lon": -0.677413, "admin_district": "Central Bedfordshire", "precision": "exact"}, "BN6 8AJ": {"lat": 50.92415, "lon": -0.141917, "admin_district": "Mid Sussex", "precision": "exact"}, "RH4 2JU": {"lat": 51.228302, "lon": -0.334454, "admin_district": "Mole Valley", "precision": "exact"}, "OX28 6FG": {"lat": 51.784339, "lon": -1.483917, "admin_district": "West Oxfordshire", "precision": "exact"}, "NE38 7NQ": {"lat": 54.898823, "lon": -1.531254, "admin_district": "Sunderland", "precision": "exact"}, "RG4 8JB": {"lat": 51.468282, "lon": -0.971874, "admin_district": "Reading", "precision": "exact"}, "SP10 2EG": {"lat": 51.203748, "lon": -1.478723, "admin_district": "Test Valley", "precision": "exact"}, "LN1 3JY": {"lat": 53.237106, "lon": -0.543219, "admin_district": "Lincoln", "precision": "exact"}, "CM12 0SD": {"lat": 51.641925, "lon": 0.431261, "admin_district": "Basildon", "precision": "exact"}, "TW9 1AD": {"lat": 51.46108, "lon": -0.302113, "admin_district": "Richmond upon Thames", "precision": "exact"}, "CB4 1AS": {"lat": 52.215827, "lon": 0.131707, "admin_district": "Cambridge", "precision": "exact"}, "PR1 6YA": {"lat": 53.770309, "lon": -2.686837, "admin_district": "Preston", "precision": "exact"}, "NG20 8AW": {"lat": 53.202579, "lon": -1.214716, "admin_district": "Bolsover", "precision": "exact"}, "DL2 1BW": {"lat": 54.513654, "lon": -1.467831, "admin_district": "Darlington", "precision": "exact"}, "WR9 8ES": {"lat": 52.268114, "lon": -2.146765, "admin_district": "Wychavon", "precision": "exact"}, "BB5 1HN": {"lat": 53.752043, "lon": -2.363018, "admin_district": "Hyndburn", "precision": "exact"}, "LE7 1GQ": {"lat": 52.700441, "lon": -1.077808, "admin_district": "Charnwood", "precision": "exact"}, "RG31 6DR": {"lat": 51.469139, "lon": -1.029198, "admin_district": "Reading", "precision": "exact"}, "YO24 1AP": {"lat": 53.954444, "lon": -1.093648, "admin_district": "York", "precision": "exact"}, "BB4 5QJ": {"lat": 53.705809, "lon": -2.325338, "admin_district": "Rossendale", "precision": "exact"}, "SM2 6LJ": {"lat": 51.357806, "lon": -0.195998, "admin_district": "Sutton", "precision": "exact"}, "N8 8AG": {"lat": 51.577307, "lon": -0.125361, "admin_district": "Haringey", "precision": "exact"}, "PR25 2LR": {"lat": 53.691342, "lon": -2.697241, "admin_district": "South Ribble", "precision": "exact"}, "CO3 3PA": {"lat": 51.886559, "lon": 0.881602, "admin_district": "Colchester", "precision": "exact"}, "CV36 4AF": {"lat": 52.063579, "lon": -1.624959, "admin_district": "Stratford-on-Avon", "precision": "exact"}, "RG7 3SY": {"lat": 51.376191, "lon": -1.062617, "admin_district": "West Berkshire", "precision": "exact"}, "M28 1HP": {"lat": 53.502538, "lon": -2.420854, "admin_district": "Salford", "precision": "exact"}, "GU7 1RL": {"lat": 51.179701, "lon": -0.620278, "admin_district": "Waverley", "precision": "exact"}, "CA1 3UD": {"lat": 54.882283, "lon": -2.905724, "admin_district": "Cumberland", "precision": "exact"}, "ME4 3ED": {"lat": 51.40106, "lon": 0.534596, "admin_district": "Medway", "precision": "exact"}, "W11 1HA": {"lat": 51.517771, "lon": -0.203825, "admin_district": "Kensington and Chelsea", "precision": "exact"}, "BS1 1XH": {"lat": 51.453912, "lon": -2.596259, "admin_district": "Bristol, City of", "precision": "exact"}, "CB2 8NX": {"lat": 52.189237, "lon": 0.135219, "admin_district": "Cambridge", "precision": "exact"}, "E14 9LS": {"lat": 51.497677, "lon": -0.013429, "admin_district": "Tower Hamlets", "precision": "exact"}, "BH2 5NX": {"lat": 50.719379, "lon": -1.886219, "admin_district": "Bournemouth, Christchurch and Poole", "precision": "exact"}, "ME15 6SJ": {"lat": 51.267417, "lon": 0.520727, "admin_district": "Maidstone", "precision": "exact"}, "SR8 1AL": {"lat": 54.759219, "lon": -1.333435, "admin_district": "County Durham", "precision": "exact"}, "WA14 2DD": {"lat": 53.384527, "lon": -2.351613, "admin_district": "Trafford", "precision": "exact"}, "SK8 7EL": {"lat": 53.36575, "lon": -2.182802, "admin_district": "Stockport", "precision": "exact"}, "GU22 9LZ": {"lat": 51.3027, "lon": -0.556774, "admin_district": "Woking", "precision": "exact"}, "TW11 9DE": {"lat": 51.420558, "lon": -0.320688, "admin_district": "Richmond upon Thames", "precision": "exact"}, "HA1 4QA": {"lat": 51.58358, "lon": -0.352285, "admin_district": "Harrow", "precision": "exact"}, "RH6 0PQ": {"lat": 51.147123, "lon": -0.183433, "admin_district": "Crawley", "precision": "exact"}, "OX14 2QA": {"lat": 51.684607, "lon": -1.26582, "admin_district": "Vale of White Horse", "precision": "exact"}, "W1G 6JD": {"lat": 51.52259, "lon": -0.150515, "admin_district": "Westminster", "precision": "exact"}, "HD1 4LF": {"lat": 53.651529, "lon": -1.807249, "admin_district": "Kirklees", "precision": "exact"}, "OL9 7LS": {"lat": 53.520747, "lon": -2.143802, "admin_district": "Oldham", "precision": "exact"}, "HD5 8PZ": {"lat": 53.644622, "lon": -1.738636, "admin_district": "Kirklees", "precision": "exact"}, "BH5 1LX": {"lat": 50.723823, "lon": -1.834443, "admin_district": "Bournemouth, Christchurch and Poole", "precision": "exact"}, "WV3 8DH": {"lat": 52.571744, "lon": -2.173645, "admin_district": "Wolverhampton", "precision": "exact"}, "LS7 2PW": {"lat": 53.828193, "lon": -1.55944, "admin_district": "Leeds", "precision": "exact"}, "BS20 0DD": {"lat": 51.478427, "lon": -2.675201, "admin_district": "North Somerset", "precision": "exact"}, "RG21 5SA": {"lat": 51.278032, "lon": -1.088616, "admin_district": "Basingstoke and Deane", "precision": "exact"}, "WR2 5BS": {"lat": 52.188303, "lon": -2.235937, "admin_district": "Worcester", "precision": "exact"}, "B72 1TJ": {"lat": 52.564638, "lon": -1.822906, "admin_district": "Birmingham", "precision": "exact"}, "RG10 9NY": {"lat": 51.477968, "lon": -0.867634, "admin_district": "Wokingham", "precision": "exact"}, "HA4 9BN": {"lat": 51.57091, "lon": -0.410984, "admin_district": "Hillingdon", "precision": "exact"}, "BL5 3RS": {"lat": 53.550097, "lon": -2.525001, "admin_district": "Bolton", "precision": "exact"}, "M46 0AU": {"lat": 53.52235, "lon": -2.491323, "admin_district": "Wigan", "precision": "exact"}, "PO36 9DQ": {"lat": 50.653732, "lon": -1.160368, "admin_district": "Isle of Wight", "precision": "exact"}, "SS8 8AA": {"lat": 51.523922, "lon": 0.593458, "admin_district": "Castle Point", "precision": "exact"}, "SM1 2DB": {"lat": 51.3582, "lon": -0.202316, "admin_district": "Sutton", "precision": "exact"}, "RG31 5DP": {"lat": 51.454499, "lon": -1.045542, "admin_district": "Reading", "precision": "exact"}, "LN1 1PE": {"lat": 53.232479, "lon": -0.547092, "admin_district": "Lincoln", "precision": "exact"}, "SW15 1RG": {"lat": 51.462678, "lon": -0.216512, "admin_district": "Wandsworth", "precision": "exact"}, "BS20 6BJ": {"lat": 51.484131, "lon": -2.769515, "admin_district": "North Somerset", "precision": "exact"}, "IG5 0PN": {"lat": 51.592033, "lon": 0.055725, "admin_district": "Redbridge", "precision": "exact"}, "CH64 9XF": {"lat": 53.289837, "lon": -3.06568, "admin_district": "Cheshire West and Chester", "precision": "exact"}, "HU5 5JR": {"lat": 53.753016, "lon": -0.411544, "admin_district": "Kingston upon Hull, City of", "precision": "exact"}, "SW18 4ST": {"lat": 51.439531, "lon": -0.186593, "admin_district": "Wandsworth", "precision": "exact"}, "SW6 4LT": {"lat": 51.472483, "lon": -0.201976, "admin_district": "Hammersmith and Fulham", "precision": "exact"}, "DN16 1AD": {"lat": 53.568842, "lon": -0.61916, "admin_district": "North Lincolnshire", "precision": "exact"}, "CM2 0EF": {"lat": 51.729327, "lon": 0.47544, "admin_district": "Chelmsford", "precision": "exact"}, "BL2 2HN": {"lat": 53.589782, "lon": -2.412142, "admin_district": "Bolton", "precision": "exact"}, "BB1 9BE": {"lat": 53.778918, "lon": -2.477866, "admin_district": "Blackburn with Darwen", "precision": "exact"}, "BN22 9QH": {"lat": 50.79809, "lon": 0.272456, "admin_district": "Eastbourne", "precision": "exact"}, "RH12 5PJ": {"lat": 51.081326, "lon": -0.315891, "admin_district": "Horsham", "precision": "exact"}, "LU1 2QR": {"lat": 51.879116, "lon": -0.418399, "admin_district": "Luton", "precision": "exact"}, "SE1 1JH": {"lat": 51.499704, "lon": -0.095438, "admin_district": "Southwark", "precision": "exact"}, "B66 4JX": {"lat": 52.486444, "lon": -1.960941, "admin_district": "Sandwell", "precision": "exact"}, "NN4 5EZ": {"lat": 52.185021, "lon": -0.891762, "admin_district": "West Northamptonshire", "precision": "exact"}, "SE23 3TR": {"lat": 51.441487748807646, "lon": -0.04910844515103328, "admin_district": null, "precision": "outcode_fallback"}, "FY5 4AF": {"lat": 53.875849, "lon": -3.012577, "admin_district": "Wyre", "precision": "exact"}, "WF2 7JE": {"lat": 53.649561, "lon": -1.497004, "admin_district": "Wakefield", "precision": "exact"}, "NG3 2FW": {"lat": 52.957886, "lon": -1.128526, "admin_district": "Nottingham", "precision": "exact"}, "B11 4AP": {"lat": 52.45006, "lon": -1.86308, "admin_district": "Birmingham", "precision": "exact"}, "ST17 4AA": {"lat": 52.802687, "lon": -2.116214, "admin_district": "Stafford", "precision": "exact"}, "LE16 9HF": {"lat": 52.466662, "lon": -0.915884, "admin_district": "Harborough", "precision": "exact"}, "NN8 1LU": {"lat": 52.301178, "lon": -0.68708, "admin_district": "North Northamptonshire", "precision": "exact"}, "W6 9NH": {"lat": 51.493323, "lon": -0.240786, "admin_district": "Hammersmith and Fulham", "precision": "exact"}, "W6 7AF": {"lat": 51.49345, "lon": -0.224186, "admin_district": "Hammersmith and Fulham", "precision": "exact"}, "GU15 3RB": {"lat": 51.338249, "lon": -0.744231, "admin_district": "Surrey Heath", "precision": "exact"}, "GU21 6LJ": {"lat": 51.317329, "lon": -0.565328, "admin_district": "Woking", "precision": "exact"}, "BH23 5HN": {"lat": 50.743091, "lon": -1.697653, "admin_district": "Bournemouth, Christchurch and Poole", "precision": "exact"}, "LN1 1XG": {"lat": 53.229737, "lon": -0.543454, "admin_district": "Lincoln", "precision": "exact"}, "WV10 8PW": {"lat": 52.612357, "lon": -2.099387, "admin_district": "Wolverhampton", "precision": "exact"}, "SE1 7RG": {"lat": 51.501039, "lon": -0.111808, "admin_district": "Lambeth", "precision": "exact"}, "KT15 2GL": {"lat": 51.370789, "lon": -0.491696, "admin_district": "Runnymede", "precision": "exact"}, "LS1 6JS": {"lat": 53.797698, "lon": -1.542892, "admin_district": "Leeds", "precision": "exact"}, "SN3 5AA": {"lat": 51.567391, "lon": -1.738716, "admin_district": "Swindon", "precision": "exact"}, "IG2 6PQ": {"lat": 51.574402, "lon": 0.076995, "admin_district": "Redbridge", "precision": "exact"}, "NG10 4ER": {"lat": 52.901855, "lon": -1.283671, "admin_district": "Erewash", "precision": "exact"}, "IP7 5AG": {"lat": 52.042176, "lon": 0.954904, "admin_district": "Babergh", "precision": "exact"}, "SG13 7EQ": {"lat": 51.800817, "lon": -0.058537, "admin_district": "East Hertfordshire", "precision": "exact"}, "M30 0EJ": {"lat": 53.482675, "lon": -2.338335, "admin_district": "Salford", "precision": "exact"}, "GU32 3JP": {"lat": 51.003451, "lon": -0.934781, "admin_district": "East Hampshire", "precision": "exact"}, "BL2 3BG": {"lat": 53.596139, "lon": -2.411599, "admin_district": "Bolton", "precision": "exact"}, "B26 1PG": {"lat": 52.462263, "lon": -1.801888, "admin_district": "Birmingham", "precision": "exact"}, "W3 8SB": {"lat": 51.507119, "lon": -0.273586, "admin_district": "Ealing", "precision": "exact"}, "SK12 1RD": {"lat": 53.34895, "lon": -2.119714, "admin_district": "Cheshire East", "precision": "exact"}, "NR34 9QH": {"lat": 52.458289, "lon": 1.566673, "admin_district": "East Suffolk", "precision": "exact"}, "NR34 9TB": {"lat": 52.456293, "lon": 1.564862, "admin_district": "East Suffolk", "precision": "exact"}, "BB2 6AY": {"lat": 53.751888, "lon": -2.492132, "admin_district": "Blackburn with Darwen", "precision": "exact"}, "SW3 4NT": {"lat": 51.489388, "lon": -0.163599, "admin_district": "Kensington and Chelsea", "precision": "exact"}, "LS10 1AP": {"lat": 53.79272, "lon": -1.541018, "admin_district": "Leeds", "precision": "exact"}, "CB10 1LS": {"lat": 52.023044, "lon": 0.244908, "admin_district": "Uttlesford", "precision": "exact"}, "DE23 4DJ": {"lat": 52.893906, "lon": -1.532303, "admin_district": "Derby", "precision": "exact"}, "HD9 3AY": {"lat": 53.571158, "lon": -1.786563, "admin_district": "Kirklees", "precision": "exact"}, "SK7 1AH": {"lat": 53.358541, "lon": -2.164966, "admin_district": "Stockport", "precision": "exact"}, "CV37 6HT": {"lat": 52.189478, "lon": -1.712813, "admin_district": "Stratford-on-Avon", "precision": "exact"}, "SL1 6LS": {"lat": 51.523976, "lon": -0.645002, "admin_district": "Slough", "precision": "exact"}, "BB8 0AG": {"lat": 53.85548, "lon": -2.178064, "admin_district": "Pendle", "precision": "exact"}, "PE25 2AG": {"lat": 53.144196, "lon": 0.337916, "admin_district": "East Lindsey", "precision": "exact"}, "TR26 1SF": {"lat": 50.211013, "lon": -5.480659, "admin_district": "Cornwall", "precision": "exact"}, "BA2 4JT": {"lat": 51.376368, "lon": -2.35432, "admin_district": "Bath and North East Somerset", "precision": "exact"}, "N14 4PL": {"lat": 51.638013, "lon": -0.139984, "admin_district": "Enfield", "precision": "exact"}, "NW10 7FQ": {"lat": 51.530064, "lon": -0.284958, "admin_district": "Brent", "precision": "exact"}, "TW11 8PF": {"lat": 51.426946, "lon": -0.33737, "admin_district": "Richmond upon Thames", "precision": "exact"}, "BS31 3JF": {"lat": 51.400525, "lon": -2.454312, "admin_district": "Bath and North East Somerset", "precision": "exact"}, "LE11 1UE": {"lat": 52.773103, "lon": -1.205265, "admin_district": "Charnwood", "precision": "exact"}, "M8 0JL": {"lat": 53.502356, "lon": -2.225526, "admin_district": "Manchester", "precision": "exact"}, "LE3 2FP": {"lat": 52.609338, "lon": -1.169421, "admin_district": "Blaby", "precision": "exact"}, "NN16 8JB": {"lat": 52.400617, "lon": -0.726524, "admin_district": "North Northamptonshire", "precision": "exact"}, "N12 9RN": {"lat": 51.61490096275073, "lon": -0.17761697851002858, "admin_district": null, "precision": "outcode_fallback"}, "TR3 6DP": {"lat": 50.261776, "lon": -5.115274, "admin_district": "Cornwall", "precision": "exact"}, "DN6 8DN": {"lat": 53.58292, "lon": -1.180698, "admin_district": "Doncaster", "precision": "exact"}, "BS35 2AN": {"lat": 51.606403, "lon": -2.526502, "admin_district": "South Gloucestershire", "precision": "exact"}, "SK10 1JS": {"lat": 53.259379, "lon": -2.118666, "admin_district": "Cheshire East", "precision": "exact"}, "LE67 4UF": {"lat": 52.724376, "lon": -1.324201, "admin_district": "North West Leicestershire", "precision": "exact"}, "PO1 2QF": {"lat": 50.793574, "lon": -1.095633, "admin_district": "Portsmouth", "precision": "exact"}, "PO36 9JP": {"lat": 50.648534, "lon": -1.167985, "admin_district": "Isle of Wight", "precision": "exact"}, "RM7 9RB": {"lat": 51.575982, "lon": 0.176406, "admin_district": "Havering", "precision": "exact"}, "S8 0LB": {"lat": 53.34701, "lon": -1.490863, "admin_district": "Sheffield", "precision": "exact"}, "CH41 6AZ": {"lat": 53.393671, "lon": -3.017399, "admin_district": "Wirral", "precision": "exact"}, "HA0 2RH": {"lat": 51.557608, "lon": -0.323536, "admin_district": "Brent", "precision": "exact"}, "BD19 5AR": {"lat": 53.722663, "lon": -1.713528, "admin_district": "Kirklees", "precision": "exact"}, "BN3 4EB": {"lat": 50.832546, "lon": -0.205386, "admin_district": "Brighton and Hove", "precision": "exact"}, "BH10 4AD": {"lat": 50.74714, "lon": -1.907228, "admin_district": "Bournemouth, Christchurch and Poole", "precision": "exact"}, "M19 2TG": {"lat": 53.439704, "lon": -2.185467, "admin_district": "Manchester", "precision": "exact"}, "PE1 3LE": {"lat": 52.600695, "lon": -0.25026, "admin_district": "Peterborough", "precision": "exact"}, "BS8 4BH": {"lat": 51.455253, "lon": -2.621867, "admin_district": "Bristol, City of", "precision": "exact"}, "SO52 9DU": {"lat": 50.979431, "lon": -1.440857, "admin_district": "Test Valley", "precision": "exact"}, "RH11 7GU": {"lat": 51.114412, "lon": -0.192503, "admin_district": "Crawley", "precision": "exact"}, "NE8 1LU": {"lat": 54.960592, "lon": -1.604092, "admin_district": "Gateshead", "precision": "exact"}, "NE2 2DJ": {"lat": 54.992567, "lon": -1.604717, "admin_district": "Newcastle upon Tyne", "precision": "exact"}, "NE3 4AA": {"lat": 55.002987, "lon": -1.620358, "admin_district": "Newcastle upon Tyne", "precision": "exact"}, "NE21 5PU": {"lat": 54.963068, "lon": -1.711473, "admin_district": "Gateshead", "precision": "exact"}, "NE28 8HG": {"lat": 54.993557, "lon": -1.533872, "admin_district": "North Tyneside", "precision": "exact"}, "NE30 1PW": {"lat": 55.010608, "lon": -1.444749, "admin_district": "North Tyneside", "precision": "exact"}, "E1W 3DD": {"lat": 51.509448, "lon": -0.058499, "admin_district": "Tower Hamlets", "precision": "exact"}, "W1W 7SF": {"lat": 51.517625, "lon": -0.140756, "admin_district": "Westminster", "precision": "exact"}, "TQ13 0HT": {"lat": 50.60468, "lon": -3.602278, "admin_district": "Teignbridge", "precision": "exact"}, "LN5 7RL": {"lat": 53.224328, "lon": -0.542919, "admin_district": "Lincoln", "precision": "exact"}, "CB7 4LN": {"lat": 52.39979, "lon": 0.263835, "admin_district": "East Cambridgeshire", "precision": "exact"}, "TS19 8JY": {"lat": 54.583432, "lon": -1.350447, "admin_district": "Stockton-on-Tees", "precision": "exact"}, "PE3 7JB": {"lat": 52.590654, "lon": -0.26935, "admin_district": "Peterborough", "precision": "exact"}, "BH9 2DS": {"lat": 50.752346, "lon": -1.876571, "admin_district": "Bournemouth, Christchurch and Poole", "precision": "exact"}, "EX4 4JA": {"lat": 50.726492, "lon": -3.536551, "admin_district": "Exeter", "precision": "exact"}, "EX17 3LT": {"lat": 50.791744, "lon": -3.666516, "admin_district": "Mid Devon", "precision": "exact"}, "BN14 8AE": {"lat": 50.820237, "lon": -0.372465, "admin_district": "Worthing", "precision": "exact"}, "NE1 7JG": {"lat": 54.974554, "lon": -1.614438, "admin_district": "Newcastle upon Tyne", "precision": "exact"}, "DH1 3HL": {"lat": 54.775057, "lon": -1.571205, "admin_district": "County Durham", "precision": "exact"}, "EC1M 3JB": {"lat": 51.520319, "lon": -0.106239, "admin_district": "Camden", "precision": "exact"}, "OX3 7BL": {"lat": 51.759867, "lon": -1.210482, "admin_district": "Oxford", "precision": "exact"}, "CW5 5BG": {"lat": 53.065528, "lon": -2.521042, "admin_district": "Cheshire East", "precision": "exact"}, "PO17 5JW": {"lat": 50.900241, "lon": -1.187581, "admin_district": "Winchester", "precision": "exact"}, "S12 4LB": {"lat": 53.345664, "lon": -1.373928, "admin_district": "Sheffield", "precision": "exact"}, "RH19 3AW": {"lat": 51.123769, "lon": -0.007848, "admin_district": "Mid Sussex", "precision": "exact"}, "GU2 9XA": {"lat": 51.256335, "lon": -0.594598, "admin_district": "Guildford", "precision": "exact"}, "SM7 2NL": {"lat": 51.322962, "lon": -0.200895, "admin_district": "Reigate and Banstead", "precision": "exact"}, "CO9 2JN": {"lat": 51.943438, "lon": 0.63634, "admin_district": "Braintree", "precision": "exact"}, "NE9 5AH": {"lat": 54.942649, "lon": -1.599211, "admin_district": "Gateshead", "precision": "exact"}, "LE3 0RD": {"lat": 52.63148, "lon": -1.151553, "admin_district": "Leicester", "precision": "exact"}, "W3 7RR": {"lat": 51.50649, "lon": -0.249948, "admin_district": "Ealing", "precision": "exact"}, "YO8 4PE": {"lat": 53.78109746326836, "lon": -1.060436511994004, "admin_district": null, "precision": "outcode_fallback"}, "E1 7LP": {"lat": 51.518578, "lon": -0.078247, "admin_district": "City of London", "precision": "exact"}, "TR11 5SN": {"lat": 50.187966, "lon": -5.075073, "admin_district": "Cornwall", "precision": "exact"}, "B13 9HB": {"lat": 52.445684, "lon": -1.882323, "admin_district": "Birmingham", "precision": "exact"}, "CH1 1RG": {"lat": 53.188297, "lon": -2.889031, "admin_district": "Cheshire West and Chester", "precision": "exact"}, "SW3 1NE": {"lat": 51.498051, "lon": -0.166118, "admin_district": "Kensington and Chelsea", "precision": "exact"}, "SL4 3HH": {"lat": 51.479534, "lon": -0.616266, "admin_district": "Windsor and Maidenhead", "precision": "exact"}, "SE2 9BH": {"lat": 51.498759, "lon": 0.119445, "admin_district": "Greenwich", "precision": "exact"}, "DA7 5AH": {"lat": 51.465805, "lon": 0.146813, "admin_district": "Bexley", "precision": "exact"}, "SE16 6AE": {"lat": 51.500699, "lon": -0.036927, "admin_district": "Southwark", "precision": "exact"}, "B2 5TB": {"lat": 52.479738, "lon": -1.901669, "admin_district": "Birmingham", "precision": "exact"}, "ST7 2EZ": {"lat": 53.095866, "lon": -2.310218, "admin_district": "Cheshire East", "precision": "exact"}, "HP7 0HT": {"lat": 51.665757, "lon": -0.616119, "admin_district": "Buckinghamshire", "precision": "exact"}, "RH2 9HU": {"lat": 51.238565, "lon": -0.210278, "admin_district": "Reigate and Banstead", "precision": "exact"}, "WN1 1XP": {"lat": 53.550802, "lon": -2.628308, "admin_district": "Wigan", "precision": "exact"}, "L15 4LL": {"lat": 53.399942, "lon": -2.927142, "admin_district": "Liverpool", "precision": "exact"}, "TS19 7LB": {"lat": 54.57206, "lon": -1.359785, "admin_district": "Stockton-on-Tees", "precision": "exact"}, "BD10 0ED": {"lat": 53.825372, "lon": -1.71482, "admin_district": "Bradford", "precision": "exact"}, "CV21 3QF": {"lat": 52.371937, "lon": -1.25215, "admin_district": "Rugby", "precision": "exact"}, "EX36 4AW": {"lat": 51.014989, "lon": -3.836039, "admin_district": "North Devon", "precision": "exact"}, "PE15 8TG": {"lat": 52.550566, "lon": 0.087778, "admin_district": "Fenland", "precision": "exact"}, "ST13 5DN": {"lat": 53.104935, "lon": -2.026066, "admin_district": "Staffordshire Moorlands", "precision": "exact"}, "DA7 6NA": {"lat": 51.460449, "lon": 0.161288, "admin_district": "Bexley", "precision": "exact"}, "SE22 9ET": {"lat": 51.457424, "lon": -0.073145, "admin_district": "Southwark", "precision": "exact"}, "BL3 1LR": {"lat": 53.561153, "lon": -2.368384, "admin_district": "Bolton", "precision": "exact"}, "WR11 4RE": {"lat": 52.092024, "lon": -1.948582, "admin_district": "Wychavon", "precision": "exact"}, "GU26 6TD": {"lat": 51.115018, "lon": -0.734944, "admin_district": "Waverley", "precision": "exact"}, "BN1 3JE": {"lat": 50.829884, "lon": -0.147267, "admin_district": "Brighton and Hove", "precision": "exact"}, "SE10 8JE": {"lat": 51.476826, "lon": -0.015761, "admin_district": "Greenwich", "precision": "exact"}, "TR11 4QL": {"lat": 50.150358, "lon": -5.077264, "admin_district": "Cornwall", "precision": "exact"}, "TS14 6AW": {"lat": 54.53417, "lon": -1.058437, "admin_district": "Redcar and Cleveland", "precision": "exact"}, "BS16 1NU": {"lat": 51.499966, "lon": -2.517019, "admin_district": "South Gloucestershire", "precision": "exact"}, "BS1 3JD": {"lat": 51.457845, "lon": -2.590178, "admin_district": "Bristol, City of", "precision": "exact"}, "SW1P 2BQ": {"lat": 51.496291, "lon": -0.130935, "admin_district": "Westminster", "precision": "exact"}, "DA16 2PL": {"lat": 51.456725, "lon": 0.094494, "admin_district": "Bexley", "precision": "exact"}, "CO6 2NS": {"lat": 51.907739, "lon": 0.682331, "admin_district": "Braintree", "precision": "exact"}, "M43 6HE": {"lat": 53.480031, "lon": -2.157045, "admin_district": "Tameside", "precision": "exact"}, "GU1 2AF": {"lat": 51.238362, "lon": -0.565176, "admin_district": "Guildford", "precision": "exact"}, "RH2 0QZ": {"lat": 51.236856, "lon": -0.190948, "admin_district": "Reigate and Banstead", "precision": "exact"}, "BN26 5DH": {"lat": 50.819102, "lon": 0.242638, "admin_district": "Wealden", "precision": "exact"}, "PO9 3EZ": {"lat": 50.85535, "lon": -1.000272, "admin_district": "Havant", "precision": "exact"}, "M41 5AL": {"lat": 53.448337, "lon": -2.360451, "admin_district": "Trafford", "precision": "exact"}, "S60 1JA": {"lat": 53.431429, "lon": -1.36963, "admin_district": "Rotherham", "precision": "exact"}, "MK45 4PZ": {"lat": 52.006486, "lon": -0.425336, "admin_district": "Central Bedfordshire", "precision": "exact"}, "ST6 6BD": {"lat": 53.059026, "lon": -2.208806, "admin_district": "Stoke-on-Trent", "precision": "exact"}, "BB4 7NG": {"lat": 53.700549, "lon": -2.287158, "admin_district": "Rossendale", "precision": "exact"}, "LS7 2BB": {"lat": 53.808448, "lon": -1.536078, "admin_district": "Leeds", "precision": "exact"}, "PO21 4TW": {"lat": 50.770267, "lon": -0.738521, "admin_district": "Arun", "precision": "exact"}, "FY1 3EJ": {"lat": 53.81883, "lon": -3.048859, "admin_district": "Blackpool", "precision": "exact"}, "W3 7RW": {"lat": 51.506408, "lon": -0.257084, "admin_district": "Ealing", "precision": "exact"}, "L1 5DL": {"lat": 53.401799, "lon": -2.984985, "admin_district": "Liverpool", "precision": "exact"}, "DY2 7DJ": {"lat": 52.506078, "lon": -2.074691, "admin_district": "Dudley", "precision": "exact"}, "SO53 1JH": {"lat": 50.993034, "lon": -1.389938, "admin_district": "Eastleigh", "precision": "exact"}, "BS3 1AR": {"lat": 51.445184, "lon": -2.597311, "admin_district": "Bristol, City of", "precision": "exact"}, "CV32 4YS": {"lat": 52.29032, "lon": -1.531432, "admin_district": "Warwick", "precision": "exact"}, "DH4 4DN": {"lat": 54.841762, "lon": -1.468479, "admin_district": "Sunderland", "precision": "exact"}, "TA24 5PB": {"lat": 51.207918, "lon": -3.479539, "admin_district": "Somerset", "precision": "exact"}, "TN15 0AF": {"lat": 51.28893, "lon": 0.21907, "admin_district": "Sevenoaks", "precision": "exact"}, "SR5 1NA": {"lat": 54.924883, "lon": -1.387652, "admin_district": "Sunderland", "precision": "exact"}, "CM9 5QP": {"lat": 51.731002, "lon": 0.676282, "admin_district": "Maldon", "precision": "exact"}, "WV10 6AN": {"lat": 52.618961, "lon": -2.12986, "admin_district": "Wolverhampton", "precision": "exact"}, "NW1 8UR": {"lat": 51.542151, "lon": -0.156341, "admin_district": "Camden", "precision": "exact"}, "B17 9NS": {"lat": 52.46042, "lon": -1.945348, "admin_district": "Birmingham", "precision": "exact"}, "DA15 7DN": {"lat": 51.432106, "lon": 0.102315, "admin_district": "Bexley", "precision": "exact"}, "PL21 9AB": {"lat": 50.388917, "lon": -3.921691, "admin_district": "South Hams", "precision": "exact"}, "PO1 2LS": {"lat": 50.790366, "lon": -1.102987, "admin_district": "Portsmouth", "precision": "exact"}, "N16 5RN": {"lat": 51.572772, "lon": -0.075242, "admin_district": "Hackney", "precision": "exact"}, "B27 6DN": {"lat": 52.447883, "lon": -1.821477, "admin_district": "Birmingham", "precision": "exact"}, "CW6 9UN": {"lat": 53.152993, "lon": -2.666626, "admin_district": "Cheshire West and Chester", "precision": "exact"}, "BR7 5LX": {"lat": 51.41474, "lon": 0.068469, "admin_district": "Bromley", "precision": "exact"}, "RG24 8GT": {"lat": 51.280544, "lon": -1.067231, "admin_district": "Basingstoke and Deane", "precision": "exact"}, "PE1 2SJ": {"lat": 52.580215, "lon": -0.243091, "admin_district": "Peterborough", "precision": "exact"}, "PE4 6QF": {"lat": 52.614134, "lon": -0.270906, "admin_district": "Peterborough", "precision": "exact"}, "PE27 5BH": {"lat": 52.32229, "lon": -0.070014, "admin_district": "Huntingdonshire", "precision": "exact"}, "DA5 1BT": {"lat": 51.447966, "lon": 0.12148, "admin_district": "Bexley", "precision": "exact"}, "CV2 3NE": {"lat": 52.419739, "lon": -1.470322, "admin_district": "Coventry", "precision": "exact"}, "CV6 3EX": {"lat": 52.431637, "lon": -1.517701, "admin_district": "Coventry", "precision": "exact"}, "TW13 4AF": {"lat": 51.444173, "lon": -0.409774, "admin_district": "Hounslow", "precision": "exact"}, "EN1 2PT": {"lat": 51.641797, "lon": -0.071308, "admin_district": "Enfield", "precision": "exact"}, "WD3 3DX": {"lat": 51.646971, "lon": -0.444099, "admin_district": "Three Rivers", "precision": "exact"}, "PE31 6HH": {"lat": 52.845956, "lon": 0.502683, "admin_district": "King's Lynn and West Norfolk", "precision": "exact"}, "SM1 4AF": {"lat": 51.364057, "lon": -0.192549, "admin_district": "Sutton", "precision": "exact"}, "TS13 4RP": {"lat": 54.555279, "lon": -0.893539, "admin_district": "Redcar and Cleveland", "precision": "exact"}, "SN15 1HL": {"lat": 51.462131, "lon": -2.11867, "admin_district": "Wiltshire", "precision": "exact"}, "M2 5GP": {"lat": 53.477855, "lon": -2.24765, "admin_district": "Manchester", "precision": "exact"}, "S2 4LW": {"lat": 53.368196, "lon": -1.476303, "admin_district": "Sheffield", "precision": "exact"}, "SL1 4XL": {"lat": 51.524868, "lon": -0.615137, "admin_district": "Slough", "precision": "exact"}, "TA1 2PX": {"lat": 51.014077, "lon": -3.068003, "admin_district": "Somerset", "precision": "exact"}, "W1G 6HJ": {"lat": 51.521657, "lon": -0.149515, "admin_district": "Westminster", "precision": "exact"}, "WN1 1SJ": {"lat": 53.550217, "lon": -2.631877, "admin_district": "Wigan", "precision": "exact"}, "ST16 2AW": {"lat": 52.80558, "lon": -2.118225, "admin_district": "Stafford", "precision": "exact"}, "ST16 3AA": {"lat": 52.805711, "lon": -2.112885, "admin_district": "Stafford", "precision": "exact"}, "SW16 1QB": {"lat": 51.430687, "lon": -0.132519, "admin_district": "Lambeth", "precision": "exact"}, "WN5 8ND": {"lat": 53.539266, "lon": -2.704943, "admin_district": "Wigan", "precision": "exact"}, "WN2 3EA": {"lat": 53.532909, "lon": -2.579765, "admin_district": "Wigan", "precision": "exact"}, "PO30 5XW": {"lat": 50.712548, "lon": -1.293703, "admin_district": "Isle of Wight", "precision": "exact"}, "TA12 6RR": {"lat": 50.965815, "lon": -2.76516, "admin_district": "Somerset", "precision": "exact"}, "LS12 4AD": {"lat": 53.783242, "lon": -1.586847, "admin_district": "Leeds", "precision": "exact"}, "W6 7JP": {"lat": 51.493446, "lon": -0.217948, "admin_district": "Hammersmith and Fulham", "precision": "exact"}, "HU15 2EP": {"lat": 53.767669, "lon": -0.604484, "admin_district": "East Riding of Yorkshire", "precision": "exact"}, "EN2 6NL": {"lat": 51.657525, "lon": -0.087801, "admin_district": "Enfield", "precision": "exact"}, "LA12 7AD": {"lat": 54.194424, "lon": -3.095875, "admin_district": "Westmorland and Furness", "precision": "exact"}, "CM14 4RG": {"lat": 51.621234, "lon": 0.304578, "admin_district": "Brentwood", "precision": "exact"}, "DY7 6HF": {"lat": 52.448092, "lon": -2.22854, "admin_district": "South Staffordshire", "precision": "exact"}, "TN34 1HL": {"lat": 50.85521, "lon": 0.578001, "admin_district": "Hastings", "precision": "exact"}, "CV31 1NG": {"lat": 52.284125, "lon": -1.529064, "admin_district": "Warwick", "precision": "exact"}, "TS23 2NT": {"lat": 54.607046, "lon": -1.292002, "admin_district": "Stockton-on-Tees", "precision": "exact"}, "HX5 0EP": {"lat": 53.684505, "lon": -1.836336, "admin_district": "Calderdale", "precision": "exact"}, "SK9 1PA": {"lat": 53.323079, "lon": -2.235224, "admin_district": "Cheshire East", "precision": "exact"}, "NG12 3NL": {"lat": 52.903668, "lon": -1.032824, "admin_district": "Rushcliffe", "precision": "exact"}, "RM8 3HB": {"lat": 51.558987, "lon": 0.143552, "admin_district": "Barking and Dagenham", "precision": "exact"}, "SO23 9EH": {"lat": 51.06088, "lon": -1.317897, "admin_district": "Winchester", "precision": "exact"}, "CT13 9AU": {"lat": 51.274311, "lon": 1.337123, "admin_district": "Dover", "precision": "exact"}, "WN5 8AG": {"lat": 53.535693, "lon": -2.677634, "admin_district": "Wigan", "precision": "exact"}, "CO2 9LA": {"lat": 51.865687, "lon": 0.873047, "admin_district": "Colchester", "precision": "exact"}, "SM1 1NU": {"lat": 51.366312, "lon": -0.194169, "admin_district": "Sutton", "precision": "exact"}, "DE5 3HR": {"lat": 53.047059, "lon": -1.405721, "admin_district": "Amber Valley", "precision": "exact"}, "LS19 7SP": {"lat": 53.866224, "lon": -1.683414, "admin_district": "Leeds", "precision": "exact"}, "NE46 1BA": {"lat": 54.969989, "lon": -2.102059, "admin_district": "Northumberland", "precision": "exact"}, "SL9 8BR": {"lat": 51.588643, "lon": -0.550648, "admin_district": "Buckinghamshire", "precision": "exact"}, "WA8 6LG": {"lat": 53.371246, "lon": -2.722125, "admin_district": "Halton", "precision": "exact"}, "BD11 1AU": {"lat": 53.756347, "lon": -1.663598, "admin_district": "Leeds", "precision": "exact"}, "KT18 7JR": {"lat": 51.327472, "lon": -0.272243, "admin_district": "Epsom and Ewell", "precision": "exact"}, "WA7 2NZ": {"lat": 53.322616, "lon": -2.690137, "admin_district": "Halton", "precision": "exact"}, "TR27 4DX": {"lat": 50.190728, "lon": -5.410589, "admin_district": "Cornwall", "precision": "exact"}, "BL3 2NU": {"lat": 53.56407, "lon": -2.413779, "admin_district": "Bolton", "precision": "exact"}, "IP4 2AA": {"lat": 52.058327, "lon": 1.157386, "admin_district": "Ipswich", "precision": "exact"}, "SR1 1NF": {"lat": 54.906031, "lon": -1.379157, "admin_district": "Sunderland", "precision": "exact"}, "MK10 7FA": {"lat": 52.043065, "lon": -0.685845, "admin_district": "Milton Keynes", "precision": "exact"}, "SE18 1HF": {"lat": 51.48627, "lon": 0.098325, "admin_district": "Greenwich", "precision": "exact"}, "LS7 3PD": {"lat": 53.828075, "lon": -1.537715, "admin_district": "Leeds", "precision": "exact"}, "EX11 1TP": {"lat": 50.741512, "lon": -3.312723, "admin_district": "East Devon", "precision": "exact"}, "TN23 1NN": {"lat": 51.145554, "lon": 0.873769, "admin_district": "Ashford", "precision": "exact"}, "TS26 8JA": {"lat": 54.685762, "lon": -1.220458, "admin_district": "Hartlepool", "precision": "exact"}, "B74 4NH": {"lat": 52.589485, "lon": -1.847693, "admin_district": "Birmingham", "precision": "exact"}, "HA5 3JF": {"lat": 51.595214, "lon": -0.383815, "admin_district": "Harrow", "precision": "exact"}, "SK10 4HP": {"lat": 53.290688, "lon": -2.149087, "admin_district": "Cheshire East", "precision": "exact"}, "YO30 4RZ": {"lat": 53.985338, "lon": -1.099887, "admin_district": "York", "precision": "exact"}, "HG2 7DB": {"lat": 53.993118, "lon": -1.494952, "admin_district": "North Yorkshire", "precision": "exact"}, "MK42 8BL": {"lat": 52.1192, "lon": -0.493831, "admin_district": "Bedford", "precision": "exact"}, "NG1 5BQ": {"lat": 52.95309, "lon": -1.156576, "admin_district": "Nottingham", "precision": "exact"}, "WS11 1EA": {"lat": 52.690256, "lon": -2.027781, "admin_district": "Cannock Chase", "precision": "exact"}, "HP9 2HN": {"lat": 51.60212, "lon": -0.636019, "admin_district": "Buckinghamshire", "precision": "exact"}, "AL10 0LN": {"lat": 51.762653, "lon": -0.226366, "admin_district": "Welwyn Hatfield", "precision": "exact"}, "LE67 3XF": {"lat": 52.724373, "lon": -1.372752, "admin_district": "North West Leicestershire", "precision": "exact"}, "PO19 1TQ": {"lat": 50.835708, "lon": -0.777971, "admin_district": "Chichester", "precision": "exact"}, "KT6 4NR": {"lat": 51.392184, "lon": -0.306203, "admin_district": "Kingston upon Thames", "precision": "exact"}, "HP9 2JH": {"lat": 51.601855, "lon": -0.634843, "admin_district": "Buckinghamshire", "precision": "exact"}, "SK8 7AB": {"lat": 53.374346, "lon": -2.186731, "admin_district": "Stockport", "precision": "exact"}, "GU34 1DH": {"lat": 51.152579, "lon": -0.97033, "admin_district": "East Hampshire", "precision": "exact"}, "L18 1LS": {"lat": 53.388303, "lon": -2.91062, "admin_district": "Liverpool", "precision": "exact"}, "BN2 6PA": {"lat": 50.829356, "lon": -0.070322, "admin_district": "Brighton and Hove", "precision": "exact"}, "W1W 6PJ": {"lat": 51.519555, "lon": -0.142235, "admin_district": "Westminster", "precision": "exact"}, "CV1 2FL": {"lat": 52.401533, "lon": -1.512076, "admin_district": "Coventry", "precision": "exact"}, "NE12 6YT": {"lat": 55.036461, "lon": -1.566499, "admin_district": "North Tyneside", "precision": "exact"}, "BL6 7AD": {"lat": 53.599407, "lon": -2.547054, "admin_district": "Bolton", "precision": "exact"}, "N2 0EF": {"lat": 51.585243, "lon": -0.180537, "admin_district": "Barnet", "precision": "exact"}, "GU22 8SW": {"lat": 51.326834, "lon": -0.51135, "admin_district": "Woking", "precision": "exact"}, "SW19 1LY": {"lat": 51.414862, "lon": -0.199908, "admin_district": "Merton", "precision": "exact"}, "LA14 5SL": {"lat": 54.116763, "lon": -3.229279, "admin_district": "Westmorland and Furness", "precision": "exact"}, "E14 4PZ": {"lat": 51.504514, "lon": -0.022051, "admin_district": "Tower Hamlets", "precision": "exact"}, "LE67 5ET": {"lat": 52.739272, "lon": -1.356438, "admin_district": "North West Leicestershire", "precision": "exact"}, "SK8 1AX": {"lat": 53.39483, "lon": -2.214101, "admin_district": "Stockport", "precision": "exact"}, "AL5 4ED": {"lat": 51.815337, "lon": -0.354304, "admin_district": "St Albans", "precision": "exact"}, "M3 4NJ": {"lat": 53.475608, "lon": -2.252052, "admin_district": "Manchester", "precision": "exact"}, "GL20 5PR": {"lat": 51.99299, "lon": -2.154425, "admin_district": "Tewkesbury", "precision": "exact"}, "BS6 7PT": {"lat": 51.479491, "lon": -2.614176, "admin_district": "Bristol, City of", "precision": "exact"}, "TW14 8DF": {"lat": 51.452425, "lon": -0.435624, "admin_district": "Hounslow", "precision": "exact"}, "WS3 2DG": {"lat": 52.613235, "lon": -2.002949, "admin_district": "Walsall", "precision": "exact"}, "CH4 7LU": {"lat": 53.167505, "lon": -2.915078, "admin_district": "Cheshire West and Chester", "precision": "exact"}, "LS28 7BN": {"lat": 53.796302, "lon": -1.66167, "admin_district": "Leeds", "precision": "exact"}, "L39 6SG": {"lat": 53.542346, "lon": -2.906678, "admin_district": "West Lancashire", "precision": "exact"}, "L21 3TX": {"lat": 53.465274, "lon": -3.006909, "admin_district": "Sefton", "precision": "exact"}, "EX8 2SU": {"lat": 50.617624, "lon": -3.412377, "admin_district": "East Devon", "precision": "exact"}, "SK9 5ND": {"lat": 53.32697, "lon": -2.24035, "admin_district": "Cheshire East", "precision": "exact"}, "PR2 3LL": {"lat": 53.797545, "lon": -2.7246, "admin_district": "Preston", "precision": "exact"}, "L17 9PW": {"lat": 53.374143, "lon": -2.936547, "admin_district": "Liverpool", "precision": "exact"}, "CH60 0AF": {"lat": 53.327763, "lon": -3.098353, "admin_district": "Wirral", "precision": "exact"}, "SW19 1DG": {"lat": 51.41589, "lon": -0.185544, "admin_district": "Merton", "precision": "exact"}, "WA8 9UH": {"lat": 53.380662, "lon": -2.725772, "admin_district": "Halton", "precision": "exact"}, "LS29 8AL": {"lat": 53.927778, "lon": -1.803683, "admin_district": "Bradford", "precision": "exact"}, "BH1 4EX": {"lat": 50.725976, "lon": -1.843885, "admin_district": "Bournemouth, Christchurch and Poole", "precision": "exact"}, "DT10 1BB": {"lat": 50.926948, "lon": -2.304392, "admin_district": "Dorset", "precision": "exact"}, "IP1 3QH": {"lat": 52.060123, "lon": 1.150757, "admin_district": "Ipswich", "precision": "exact"}, "W1G 9PH": {"lat": 51.518026, "lon": -0.146189, "admin_district": "Westminster", "precision": "exact"}, "PR3 5JX": {"lat": 53.809586, "lon": -2.728164, "admin_district": "Preston", "precision": "exact"}, "OL16 1PZ": {"lat": 53.612395, "lon": -2.155722, "admin_district": "Rochdale", "precision": "exact"}, "S60 5BS": {"lat": 53.403732, "lon": -1.374295, "admin_district": "Rotherham", "precision": "exact"}, "GL2 0LS": {"lat": 51.870413, "lon": -2.223071, "admin_district": "Gloucester", "precision": "exact"}, "PR7 1JE": {"lat": 53.653401, "lon": -2.636171, "admin_district": "Chorley", "precision": "exact"}, "RH2 7BG": {"lat": 51.237154, "lon": -0.205649, "admin_district": "Reigate and Banstead", "precision": "exact"}, "N6 5JG": {"lat": 51.570638, "lon": -0.146545, "admin_district": "Haringey", "precision": "exact"}, "EN8 9DF": {"lat": 51.705218, "lon": -0.034773, "admin_district": "Broxbourne", "precision": "exact"}, "RH12 1EQ": {"lat": 51.062816, "lon": -0.328252, "admin_district": "Horsham", "precision": "exact"}, "HX1 3XA": {"lat": 53.718535, "lon": -1.874678, "admin_district": "Calderdale", "precision": "exact"}, "NR18 0AY": {"lat": 52.569296, "lon": 1.112108, "admin_district": "South Norfolk", "precision": "exact"}, "SO14 7EB": {"lat": 50.904682, "lon": -1.405544, "admin_district": "Southampton", "precision": "exact"}, "BN16 1NP": {"lat": 50.806254, "lon": -0.481415, "admin_district": "Arun", "precision": "exact"}, "CM11 2XP": {"lat": 51.601894, "lon": 0.469717, "admin_district": "Basildon", "precision": "exact"}, "OL6 6QH": {"lat": 53.487888, "lon": -2.084569, "admin_district": "Tameside", "precision": "exact"}, "LE2 5BA": {"lat": 52.598389, "lon": -1.081751, "admin_district": "Oadby and Wigston", "precision": "exact"}, "BN11 1DU": {"lat": 50.81504, "lon": -0.369991, "admin_district": "Worthing", "precision": "exact"}, "BA3 3FJ": {"lat": 51.291251, "lon": -2.446093, "admin_district": "Bath and North East Somerset", "precision": "exact"}, "OX26 6AN": {"lat": 51.896322, "lon": -1.152708, "admin_district": "Cherwell", "precision": "exact"}, "CV8 1LS": {"lat": 52.344889, "lon": -1.581146, "admin_district": "Warwick", "precision": "exact"}, "M19 3DL": {"lat": 53.446832, "lon": -2.191009, "admin_district": "Manchester", "precision": "exact"}, "BN14 7RN": {"lat": 50.829117, "lon": -0.378532, "admin_district": "Worthing", "precision": "exact"}, "E1 6AG": {"lat": 51.518945, "lon": -0.076517, "admin_district": "Tower Hamlets", "precision": "exact"}, "M3 3HF": {"lat": 53.47988, "lon": -2.250781, "admin_district": "Manchester", "precision": "exact"}, "TR26 1SD": {"lat": 50.211789, "lon": -5.480898, "admin_district": "Cornwall", "precision": "exact"}, "NR18 0SJ": {"lat": 52.57809, "lon": 1.130211, "admin_district": "South Norfolk", "precision": "exact"}, "RG26 3PX": {"lat": 51.357259, "lon": -1.137038, "admin_district": "Basingstoke and Deane", "precision": "exact"}, "NE4 8DP": {"lat": 54.969572, "lon": -1.648975, "admin_district": "Newcastle upon Tyne", "precision": "exact"}, "M44 5DX": {"lat": 53.421537, "lon": -2.442293, "admin_district": "Salford", "precision": "exact"}, "NG24 1TF": {"lat": 53.072161, "lon": -0.806387, "admin_district": "Newark and Sherwood", "precision": "exact"}, "ME10 4AW": {"lat": 51.339588, "lon": 0.737632, "admin_district": "Swale", "precision": "exact"}, "ME12 2RN": {"lat": 51.420478, "lon": 0.798636, "admin_district": "Swale", "precision": "exact"}, "IG10 1DR": {"lat": 51.646769, "lon": 0.053835, "admin_district": "Epping Forest", "precision": "exact"}, "YO16 4EL": {"lat": 54.087389, "lon": -0.202569, "admin_district": "East Riding of Yorkshire", "precision": "exact"}, "SN1 3BB": {"lat": 51.554711, "lon": -1.77717, "admin_district": "Swindon", "precision": "exact"}, "BS10 5EL": {"lat": 51.496573, "lon": -2.598904, "admin_district": "Bristol, City of", "precision": "exact"}, "N1 1RU": {"lat": 51.545275, "lon": -0.103515, "admin_district": "Islington", "precision": "exact"}, "EN5 4PL": {"lat": 51.658326, "lon": -0.202869, "admin_district": "Barnet", "precision": "exact"}, "CV3 2SB": {"lat": 52.397677, "lon": -1.433373, "admin_district": "Coventry", "precision": "exact"}, "WA11 8HE": {"lat": 53.501203, "lon": -2.787786, "admin_district": "St. Helens", "precision": "exact"}, "WC1N 1AG": {"lat": 51.526024, "lon": -0.125493, "admin_district": "Camden", "precision": "exact"}, "IG9 5BS": {"lat": 51.625357, "lon": 0.042003, "admin_district": "Epping Forest", "precision": "exact"}, "WF1 3JU": {"lat": 53.690297, "lon": -1.503894, "admin_district": "Wakefield", "precision": "exact"}, "LS1 2EE": {"lat": 53.796555, "lon": -1.552013, "admin_district": "Leeds", "precision": "exact"}, "CA1 2AH": {"lat": 54.893496, "lon": -2.923828, "admin_district": "Cumberland", "precision": "exact"}, "NW7 3RJ": {"lat": 51.615634, "lon": -0.247067, "admin_district": "Barnet", "precision": "exact"}, "WA4 5LR": {"lat": 53.344393, "lon": -2.630706, "admin_district": "Halton", "precision": "exact"}, "DN40 2EU": {"lat": 53.619788, "lon": -0.222262, "admin_district": "North East Lincolnshire", "precision": "exact"}, "BR5 2RG": {"lat": 51.403974, "lon": 0.104907, "admin_district": "Bromley", "precision": "exact"}, "UB6 7JZ": {"lat": 51.535754, "lon": -0.309645, "admin_district": "Ealing", "precision": "exact"}, "DN9 1PY": {"lat": 53.557501, "lon": -0.823757, "admin_district": "North Lincolnshire", "precision": "exact"}, "W14 8EZ": {"lat": 51.500262, "lon": -0.211444, "admin_district": "Kensington and Chelsea", "precision": "exact"}, "NG3 5FF": {"lat": 52.977117, "lon": -1.136316, "admin_district": "Nottingham", "precision": "exact"}, "GU51 4AB": {"lat": 51.278683, "lon": -0.846419, "admin_district": "Hart", "precision": "exact"}, "NN8 2NG": {"lat": 52.285053, "lon": -0.694008, "admin_district": "North Northamptonshire", "precision": "exact"}, "NE3 1UE": {"lat": 55.007699, "lon": -1.615748, "admin_district": "Newcastle upon Tyne", "precision": "exact"}, "W1G 7HD": {"lat": 51.519676, "lon": -0.147044, "admin_district": "Westminster", "precision": "exact"}, "E11 2HY": {"lat": 51.57728, "lon": 0.033295, "admin_district": "Redbridge", "precision": "exact"}, "BD23 3RS": {"lat": 53.983986, "lon": -2.102292, "admin_district": "North Yorkshire", "precision": "exact"}, "BN23 6DG": {"lat": 50.785312, "lon": 0.318046, "admin_district": "Eastbourne", "precision": "exact"}, "BA1 1HZ": {"lat": 51.380696, "lon": -2.367659, "admin_district": "Bath and North East Somerset", "precision": "exact"}, "B66 4SJ": {"lat": 52.486963, "lon": -1.953916, "admin_district": "Sandwell", "precision": "exact"}, "SO23 8UY": {"lat": 51.065135, "lon": -1.31979, "admin_district": "Winchester", "precision": "exact"}, "RG6 7DY": {"lat": 51.440675, "lon": -0.917807, "admin_district": "Wokingham", "precision": "exact"}, "LS14 6HT": {"lat": 53.815806, "lon": -1.455984, "admin_district": "Leeds", "precision": "exact"}, "OX29 7NY": {"lat": 51.777506, "lon": -1.522376, "admin_district": "West Oxfordshire", "precision": "exact"}, "LU5 4SJ": {"lat": 51.896784, "lon": -0.497977, "admin_district": "Central Bedfordshire", "precision": "exact"}, "AL1 3TJ": {"lat": 51.750994, "lon": -0.33161, "admin_district": "St Albans", "precision": "exact"}, "HP2 7QD": {"lat": 51.780169, "lon": -0.442637, "admin_district": "Dacorum", "precision": "exact"}, "BD6 1AN": {"lat": 53.767686, "lon": -1.764044, "admin_district": "Bradford", "precision": "exact"}, "WA15 8TS": {"lat": 53.369489, "lon": -2.312743, "admin_district": "Trafford", "precision": "exact"}, "ST6 1NT": {"lat": 53.050972, "lon": -2.175186, "admin_district": "Stoke-on-Trent", "precision": "exact"}, "NE33 1PU": {"lat": 54.996878, "lon": -1.431355, "admin_district": "South Tyneside", "precision": "exact"}, "SS7 3EG": {"lat": 51.56614, "lon": 0.567229, "admin_district": "Castle Point", "precision": "exact"}, "WC1E 6DE": {"lat": 51.523625, "lon": -0.134659, "admin_district": "Camden", "precision": "exact"}, "DE24 9AD": {"lat": 52.888567, "lon": -1.450483, "admin_district": "Derby", "precision": "exact"}, "SS7 5LD": {"lat": 51.551534, "lon": 0.562282, "admin_district": "Castle Point", "precision": "exact"}, "M41 8GN": {"lat": 53.455189, "lon": -2.393564, "admin_district": "Trafford", "precision": "exact"}, "HU16 5NA": {"lat": 53.777615, "lon": -0.433106, "admin_district": "East Riding of Yorkshire", "precision": "exact"}, "GU4 7EW": {"lat": 51.251387, "lon": -0.530036, "admin_district": "Guildford", "precision": "exact"}, "WD17 3AH": {"lat": 51.665667, "lon": -0.416605, "admin_district": "Watford", "precision": "exact"}, "L37 3LN": {"lat": 53.557899, "lon": -3.058487, "admin_district": "Sefton", "precision": "exact"}, "NN17 2UR": {"lat": 52.490495, "lon": -0.713076, "admin_district": "North Northamptonshire", "precision": "exact"}, "RH19 1QD": {"lat": 51.134618, "lon": -0.026635, "admin_district": "Mid Sussex", "precision": "exact"}, "NN1 5BA": {"lat": 52.238232, "lon": -0.880656, "admin_district": "West Northamptonshire", "precision": "exact"}, "NR19 2BY": {"lat": 52.681825, "lon": 0.944094, "admin_district": "Breckland", "precision": "exact"}, "WR10 1EQ": {"lat": 52.113641, "lon": -2.078483, "admin_district": "Wychavon", "precision": "exact"}, "S62 5NF": {"lat": 53.467833, "lon": -1.333104, "admin_district": "Rotherham", "precision": "exact"}, "OX27 8AG": {"lat": 51.960389, "lon": -1.101175, "admin_district": "Cherwell", "precision": "exact"}, "PE38 9HF": {"lat": 52.603518, "lon": 0.37859, "admin_district": "King's Lynn and West Norfolk", "precision": "exact"}, "WN2 5TH": {"lat": 53.517768, "lon": -2.576949, "admin_district": "Wigan", "precision": "exact"}, "E4 8JL": {"lat": 51.615992, "lon": -0.017049, "admin_district": "Waltham Forest", "precision": "exact"}, "SS16 4XP": {"lat": 51.566667, "lon": 0.482541, "admin_district": "Basildon", "precision": "exact"},