Location ID,Practice Name,extracted_postcode,display_address,lat,lon,geocode_precision,admin_district,City / Town,Region,ASM Name,Area,Nation
1-4946970203,@HomeDental Limited,TQ9 5AD,"Totnes, TQ9 5AD",50.43047,-3.679425,exact,South Hams,,South West,Muhammad,"South England, Ireland, and Scotland",England
1-26487617499,1 Deansgate Dental Clinic Ltd,M3 1AZ,"1 Deansgate, Manchester, M3 1AZ",53.483945,-2.245078,exact,Manchester,,North West,Jennifer,North England,England
1-19934059026,1 Kings Dental,W1D 3JP,"London, W1D 3JP",51.514397,-0.132269,exact,Westminster,,London,Russel,Greater London,England
1-23406162625,10 Dental,PR8 6PY,"Southport, Merseyside, PR8 6PY",53.640978,-2.998202,exact,Sefton,Merseyside,North West,Jennifer,North England,England
1-197334542,10 Hall Lane Dental Practice Limited,RM14 1AE,"Upminster, Essex, RM14 1AE",51.559644,0.251082,exact,Havering,Essex,London,Russel,Greater London,England
1-3211431917,108 Dental Surgery,SW11 1SH,"Battersea, London, SW11 1SH",51.460791,-0.175702,exact,Wandsworth,,London,Russel,Greater London,England
1-1478310345,110 Dental Ltd,OX39 4QG,"Chinnor, Oxfordshire, OX39 4QG",51.699047,-0.906269,exact,South Oxfordshire,Oxfordshire,South East,Muhammad,"South England, Ireland, and Scotland",England
1-3485794929,110 Total Dentistry,N3 2DN,"London, N3 2DN",51.604143,-0.189124,exact,Barnet,,London,Russel,Greater London,England
1-5197258571,112 Dental Care,SO31 7EP,"Sarisbury Green, Southampton, Hampshire, SO31 7EP",50.875017,-1.279751,exact,Fareham,Hampshire,South East,Muhammad,"South England, Ireland, and Scotland",England
1-20437097925,12 Rolle St,EX8 1HE,"Exmouth, EX8 1HE",50.619348,-3.413333,exact,East Devon,,South West,Muhammad,"South England, Ireland, and Scotland",England
1-221763275,121 Dental Practice,KT3 4LR,"New Malden, Surrey, KT3 4LR",51.399243,-0.249271,exact,Kingston upon Thames,Surrey,London,Russel,Greater London,England
1-24777537399,123 Hoe Street,E17 4RX,"London, E17 4RX",51.585981,-0.019511,exact,Waltham Forest,,London,Russel,Greater London,England
1-6948783211,128 Dental Care,SK2 6BY,"Stockport, Greater Manchester, SK2 6BY",53.394962,-2.136339,exact,Stockport,Greater Manchester,North West,Jennifer,North England,England
1-211493492,130 Dental Centre,UB3 3HB,"Hayes, Middlesex, UB3 3HB",51.509959,-0.414215,exact,Hillingdon,Middlesex,London,Russel,Greater London,England
1-216804883,137 The Dental Practice,NE3 4NQ,"Gosforth, Newcastle Upon Tyne, Tyne and Wear, NE3 4NQ",55.003432,-1.639834,exact,Newcastle upon Tyne,Tyne and Wear,North East,Jennifer,North England,England
1-257523992,1-5 Orchard Road,RM10 9PT,"Dagenham, Essex, RM10 9PT",51.533632,0.153133,exact,Barking and Dagenham,Essex,London,Russel,Greater London,England
1-2747730008,15 The Pantiles Dental Practice,CM12 0UA,"Billericay, Essex, CM12 0UA",51.63734,0.413774,exact,Basildon,Essex,East of England,Muhammad,"South England, Ireland, and Scotland",England
1-806249433,169 Lewes Road Dental Surgery,BN2 3LD,"Brighton, East Sussex, BN2 3LD",50.833792,-0.127301,exact,Brighton and Hove,East Sussex,South East,Muhammad,"South England, Ireland, and Scotland",England
1-4745944793,17 Dental,GU2 8AE,"Guildford, Surrey, GU2 8AE",51.24973,-0.590457,exact,Guildford,Surrey,South East,Muhammad,"South England, Ireland, and Scotland",England
1-25867031382,18 High Street,RH2 9AY,"Reigate, RH2 9AY",51.237824,-0.206511,exact,Reigate and Banstead,,South East,Muhammad,"South England, Ireland, and Scotland",England
1-4826287581,183dental,L35 5AF,"Whiston, Prescot, Merseyside, L35 5AF",53.423527,-2.788455,exact,Knowsley,Merseyside,North West,Jennifer,North England,England
1-215610365,18a Charing Cross Dental Surgery,WC2H 0HR,"London, WC2H 0HR",51.510527,-0.128162,exact,Westminster,,London,Russel,Greater London,England
1-1059213371,19 Bell Street Dental Practice,CM21 9AR,"Sawbridgeworth, Hertfordshire, CM21 9AR",51.812739,0.149407,exact,East Hertfordshire,Hertfordshire,East of England,Muhammad,"South England, Ireland, and Scotland",England
1-10840260326,19 Wimpole Street Dental,W1G 8GE,"London, W1G 8GE",51.518316,-0.148036,exact,Westminster,,London,Russel,Greater London,England
1-5873489660,1A Dental Practice Partnership,NE33 1PD,"South Shields, Tyne and Wear, NE33 1PD",54.996408,-1.430815,exact,South Tyneside,Tyne and Wear,North East,Jennifer,North England,England
1-247941974,1A Orthodontics,SW18 3TG,"Earlsfield, London, SW18 3TG",51.436618,-0.185514,exact,Wandsworth,,London,Russel,Greater London,England
1-1828727856,1st Impressions Dental Practice,CT12 6FA,"Marlowe Way, Ramsgate, Kent, CT12 6FA",51.351291,1.390651,exact,Thanet,Kent,South East,Muhammad,"South England, Ireland, and Scotland",England
1-15217111425,1st Practice,HU13 9AY,"Boothferry Road, Hessle, HU13 9AY",53.73401,-0.423735,exact,East Riding of Yorkshire,,Yorkshire and The Humber,Jennifer,North England,England
1-13872537837,2 Green Dental Boutique,DA1 4HA,"Crayford, Dartford, DA1 4HA",51.451191,0.179533,exact,Bexley,,London,Russel,Greater London,England
1-2214255895,"2 Green Smile LTD, trading as 2 Green Dental",DA1 4JL,"Crayford, Dartford, Kent, DA1 4JL",51.453951,0.181478,exact,Bexley,Kent,London,Russel,Greater London,England
1-203274438,2:30 Limited,NN17 1RZ,"Corby, Northamptonshire, NN17 1RZ",52.490132,-0.69715,exact,North Northamptonshire,Northamptonshire,East Midlands,Shubhjoth,Midlands,England
1-204247187,20/20 Dental Practice Limited,RG14 5DD,"Newbury, Berkshire, RG14 5DD",51.398629,-1.321635,exact,West Berkshire,Berkshire,South East,Muhammad,"South England, Ireland, and Scotland",England
1-6155644440,202 Dental - Malvern,WR14 2QX,"Malvern, Worcestershire, WR14 2QX",52.11802,-2.311027,exact,Malvern Hills,Worcestershire,West Midlands,Shubhjoth,Midlands,England
1-9377500239,2020DentalCare,ST17 9DH,"Stafford, ST17 9DH",52.786704,-2.116023,exact,Stafford,,West Midlands,Shubhjoth,Midlands,England
1-7690964992,207 Dental Care,M3 3NW,"207 Deansgate, Manchester, Lancashire, M3 3NW",53.478751,-2.249027,exact,Manchester,Lancashire,North West,Jennifer,North England,England
1-200930230,210 Dental Clinic,LS23 6BT,"Boston Spa, Wetherby, West Yorkshire, LS23 6BT",53.904255,-1.345569,exact,Leeds,West Yorkshire,Yorkshire and The Humber,Jennifer,North England,England
1-224198734,211 Dental,HA9 8EL,"Wembley Park, Wembley, Middlesex, HA9 8EL",51.560735,-0.292172,exact,Brent,Middlesex,London,Russel,Greater London,England
1-24157451598,212 Dental Studio,SK22 4BP,"New Mills, High Peak, Derbyshire, SK22 4BP",53.367607,-1.998081,exact,High Peak,Derbyshire,East Midlands,Jennifer,North England,England
1-24218857879,212 dental studio,SK2 6QZ,"Stockport, Greater Manchester, SK2 6QZ",53.397715,-2.156981,exact,Stockport,Greater Manchester,North West,Jennifer,North England,England
1-5578663665,214 Dental,M9 0RR,"Manchester, Lancashire, M9 0RR",53.533881,-2.223928,exact,Manchester,Lancashire,North West,Jennifer,North England,England
1-10001367005,218 Smile Clinic,HA1 4JU,"Harrow, Middlesex, HA1 4JU",51.58326,-0.354476,exact,Harrow,Middlesex,London,Russel,Greater London,England
1-19033000225,21D Bristol,BS16 1FX,"Old Gloucester Road, Hambrook, Bristol, BS16 1FX",51.523929,-2.529067,exact,South Gloucestershire,,South West,Shubhjoth,Midlands,England
1-22849920715,21D Bromsgrove,B61 0GD,"Topaz Business Park, Topaz Way, Bromsgrove, B61 0GD",52.357117,-2.048566,exact,Bromsgrove,,West Midlands,Shubhjoth,Midlands,England
1-19033000253,21D Carlisle,CA3 0JG,"Clifford Court, Cooper Way, Parkhouse, Carlisle, CA3 0JG",54.930905,-2.956647,exact,Cumberland,,North West,Jennifer,North England,England
1-23578555083,21D Colchester,CO7 7RQ,"Apex 12, Colchester, CO7 7RQ",51.926785,0.981688,exact,Tendring,,East of England,Muhammad,"South England, Ireland, and Scotland",England
1-23578555196,21D Darlington,DL1 4WD,"Darlington, DL1 4WD",54.516808,-1.503658,exact,Darlington,,North East,Jennifer,North England,England
1-20394982004,21D Guildford,GU1 3UA,"Guildford, Surrey, GU1 3UA",51.234495,-0.574034,exact,Guildford,Surrey,South East,Muhammad,"South England, Ireland, and Scotland",England
1-19886183595,21D Leeds,LS15 8GB,"Leeds, LS15 8GB",53.798643,-1.427937,exact,Leeds,,Yorkshire and The Humber,Jennifer,North England,England
1-19666617138,21D Luton,LU2 8DL,"Great Marlings, Luton, LU2 8DL",51.912331,-0.387951,exact,Luton,,East of England,Muhammad,"South England, Ireland, and Scotland",England
1-22161325466,21D Lutterworth,LE17 4HB,"Lutterworth, LE17 4HB",52.451065,-1.196544,exact,Harborough,,East Midlands,Shubhjoth,Midlands,England
1-19610804865,21D Warrington,WA3 7GB,"Dewhurst Road, Birchwood, Warrington, WA3 7GB",53.414558,-2.523179,exact,Warrington,,North West,Jennifer,North England,England
1-15661719813,21D Warrington (Surgical Clinic),WA3 7PB,"The Links, Kelvin Close, Birchwood, Warrington, WA3 7PB",53.430842,-2.530197,exact,Warrington,,North West,Jennifer,North England,England
1-6483079288,23 Cosmetic Dental Clinic-Morpeth,NE61 1QF,"Morpeth, Northumberland, NE61 1QF",55.167499,-1.692685,exact,Northumberland,Northumberland,North East,Jennifer,North England,England
1-18944337695,23 Dental,DN14 9HE,"Snaith, Goole, Humberside, DN14 9HE",53.6917,-1.029253,exact,East Riding of Yorkshire,Humberside,Yorkshire and The Humber,Jennifer,North England,England
1-5429675530,24/7 Dental Clinics Ltd,HA3 7AS,"Spencer Road, Harrow, Middlesex, HA3 7AS",51.597489,-0.336173,exact,Harrow,Middlesex,London,Russel,Greater London,England
1-416824371,"25 Devonshire Place, Dental Practice",W1G 6JD,"25 Devonshire Place, London, W1G 6JD",51.52259,-0.150515,exact,Westminster,,London,Russel,Greater London,England
1-2699853251,261 Dental Care,B36 0ET,"Castle Bromwich, Birmingham, West Midlands, B36 0ET",52.501863,-1.76703,exact,Solihull,West Midlands,West Midlands,Shubhjoth,Midlands,England
1-1453545796,28 Harley Place,W1G 8LZ,"London, W1G 8LZ",51.518581,-0.147737,exact,Westminster,,London,Russel,Greater London,England
1-17410256866,2th Dental Practice,LE16 9HD,"Market Harborough, Leicestershire, LE16 9HD",52.472617,-0.916209,exact,Harborough,Leicestershire,East Midlands,Shubhjoth,Midlands,England
1-193829793,3 One One Dental Care,N12 8LY,"North Finchley, London, N12 8LY",51.612862,-0.177844,exact,Barnet,,London,Russel,Greater London,England
1-306553259,300 Great Western Street,M14 4LP,"Rusholme, Manchester, Greater Manchester, M14 4LP",53.456067,-2.234151,exact,Manchester,Greater Manchester,North West,Jennifer,North England,England
1-2652885851,30a Wimpole Street,W1G 8YA,"London, W1G 8YA",51.519222,-0.148489,exact,Westminster,,London,Russel,Greater London,England
1-15980326895,31 Harley Street,W1G 9QS,"London, W1G 9QS",51.517845,-0.146686,exact,Westminster,,London,Russel,Greater London,England
1-3565765645,310 Dental Care,OX3 8DJ,"Headington, Oxford, Oxfordshire, OX3 8DJ",51.762444,-1.194063,exact,Oxford,Oxfordshire,South East,Muhammad,"South England, Ireland, and Scotland",England
1-188341993,318 Erith Road Dental Practice,DA7 6HJ,"Barnehurst, Bexleyheath, Kent, DA7 6HJ",51.467178,0.158237,exact,Bexley,Kent,London,Russel,Greater London,England
1-3110389169,32 Whites - Church Lane,SK6 7AR,"Stockport, Cheshire, SK6 7AR",53.392641,-2.063898,exact,Stockport,SK6 7AR,North West,,,England
1-189933585,321 Dental,NW3 6EP,"London, NW3 6EP",51.550424,-0.183412,exact,Camden,,London,Russel,Greater London,England
1-2611891931,33 Beaumont Street,OX1 2NP,"Oxford, Oxfordshire, OX1 2NP",51.755085,-1.261924,exact,Oxford,Oxfordshire,South East,Muhammad,"South England, Ireland, and Scotland",England
1-9251638573,33 Dental Clinic,LE7 7AZ,"Anstey, Leicester, LE7 7AZ",52.672778,-1.18718,exact,Charnwood,,East Midlands,Shubhjoth,Midlands,England
1-26416302424,33 Harley Street,W1G 9QT,"London, W1G 9QT",51.517908,-0.146712,exact,Westminster,W1G 9QT,London,Russel,Greater London,England
1-12376970390,34 Dental,LE2 5BA,"Oadby, Leicester, Leicestershire, LE2 5BA",52.598389,-1.081751,exact,Oadby and Wigston,Leicestershire,East Midlands,Shubhjoth,Midlands,England
1-306784005,349-351 Brockley Road,SE4 2AQ,"Crofton Park, London, SE4 2AQ",51.456299,-0.035753,exact,Lewisham,,London,Russel,Greater London,England
1-1228567451,360 Dental Care Limited,M3 4NJ,"Manchester, Lancashire, M3 4NJ",53.475608,-2.252052,exact,Manchester,Lancashire,North West,Jennifer,North England,England
1-1588345092,372 Dental,BL2 6DD,"Bolton, Lancashire, BL2 6DD",53.580449,-2.402581,exact,Bolton,Lancashire,North West,Jennifer,North England,England
1-2156948598,3A Dental Care,LA1 1NQ,"Lancaster, Lancashire, LA1 1NQ",54.048722,-2.797801,exact,Lancaster,Lancashire,North West,Jennifer,North England,England
1-2896381100,40 Harley Street,W1G 9PP,"London, W1G 9PP",51.518669,-0.146494,exact,Westminster,,London,Russel,Greater London,England
1-15776665974,406 Dental,M25 1PZ,"Prestwich, Manchester, Greater Manchester, M25 1PZ",53.535954,-2.269475,exact,Bury,Greater Manchester,North West,Jennifer,North England,England
1-335306179,42 St Giles,OX1 3LW,"Oxford, Oxfordshire, OX1 3LW",51.757575,-1.260478,exact,Oxford,Oxfordshire,South East,Muhammad,"South England, Ireland, and Scotland",England
1-26500227534,42 The Dental Practice,W11 3HN,"Notting Hill Gate, London, W11 3HN",51.51025,-0.19716,exact,Kensington and Chelsea,,London,Russel,Greater London,England
1-211538989,44 Dental Care,LE3 5EQ,"Leicester, Leicestershire, LE3 5EQ",52.643307,-1.149713,exact,Leicester,Leicestershire,East Midlands,Shubhjoth,Midlands,England
1-14142908877,45 The Green Dental Practice,OX16 9AB,"Banbury, OX16 9AB",52.059266,-1.341013,exact,Cherwell,,South East,Muhammad,"South England, Ireland, and Scotland",England
1-305157922,4-6 George Street,TW9 1JY,"Richmond, Surrey, TW9 1JY",51.459849,-0.305945,exact,Richmond upon Thames,Surrey,London,Russel,Greater London,England
1-6809670964,488 Smile Avenue,B9 5PA,"Birmingham, West Midlands, B9 5PA",52.47864,-1.841922,exact,Birmingham,West Midlands,West Midlands,Shubhjoth,Midlands,England
1-3888548704,5 De Parys Dental Care,MK40 2TX,"5 De Parys Avenue, Bedford, Bedfordshire, MK40 2TX",52.140525,-0.466414,exact,Bedford,Bedfordshire,East of England,Muhammad,"South England, Ireland, and Scotland",England
1-460166078,50 Metcalfe Road,CB4 2DD,"Cambridge, Cambridgeshire, CB4 2DD",52.221239,0.122318,exact,Cambridge,Cambridgeshire,East of England,Muhammad,"South England, Ireland, and Scotland",England
1-12916556164,518 Dental,OL11 4DQ,"Rochdale, Lancashire, OL11 4DQ",53.612662,-2.188326,exact,Rochdale,Lancashire,North West,Jennifer,North England,England
1-203600470,52 The Dental Practice,KT3 3QL,"New Malden, Surrey, KT3 3QL",51.401486,-0.2604,exact,Kingston upon Thames,Surrey,London,Russel,Greater London,England
1-1781504201,530 Bolton Partnership,BL1 6AB,"Bolton, Lancashire, BL1 6AB",53.588954,-2.461745,exact,Bolton,Lancashire,North West,Jennifer,North England,England
1-215998666,543 Dental Centre Limited,HU3 6HP,"Hull, Humberside, HU3 6HP",53.743461,-0.380667,exact,"Kingston upon Hull, City of",Humberside,Yorkshire and The Humber,Jennifer,North England,England
1-12496572866,55 Gosforth Smiles Clinic,NE3 1UE,"Gosforth, Newcastle Upon Tyne, NE3 1UE",55.007699,-1.615748,exact,Newcastle upon Tyne,,North East,Jennifer,North England,England
1-2398446742,55 Wimpole Street,W1G 8YL,"London, W1G 8YL",51.519366,-0.149046,exact,Westminster,,London,Russel,Greater London,England
1-8175635390,55A Dental,NW8 7NL,"London, NW8 7NL",51.533598,-0.171206,exact,Westminster,,London,Russel,Greater London,England
1-7620101828,57 Dental Care,BD19 3LB,"Cleckheaton, West Yorkshire, BD19 3LB",53.726452,-1.711926,exact,Kirklees,West Yorkshire,Yorkshire and The Humber,Jennifer,North England,England
1-232804888,57 Friar Gate Dental Practice,DE1 1DF,"Derby, Derbyshire, DE1 1DF",52.924798,-1.487644,exact,Derby,Derbyshire,East Midlands,Shubhjoth,Midlands,England
1-279291944,58 Oaklands Park Avenue,IG1 1TG,"Ilford, IG1 1TG",51.561387,0.082693,exact,Redbridge,,London,Russel,Greater London,England
1-25540144154,6 Ways Dental Practice,B23 6BJ,"Erdington, Birmingham, West Midlands, B23 6BJ",52.520701,-1.846162,exact,Birmingham,West Midlands,West Midlands,Shubhjoth,Midlands,England
1-7293759309,606 Dental Practice,B91 1AA,"Solihull, West Midlands, B91 1AA",52.416891,-1.781873,exact,Solihull,West Midlands,West Midlands,Shubhjoth,Midlands,England
1-198139710,61 Dental,SK8 4NG,"Gatley, Cheadle, Cheshire, SK8 4NG",53.391913,-2.23583,exact,Stockport,Cheshire,North West,Jennifer,North England,England
1-232758037,62A Goodge Street,W1T 4NE,"London, W1T 4NE",51.519091,-0.136791,exact,Camden,,London,Russel,Greater London,England
1-3558178309,65 Rodney Street,L1 9EX,"Liverpool, Merseyside, L1 9EX",53.399474,-2.973666,exact,Liverpool,Merseyside,North West,Jennifer,North England,England
1-15540264483,68 Dental,LS15 8DZ,"Crossgates, Leeds, West Yorkshire, LS15 8DZ",53.807149,-1.447699,exact,Leeds,West Yorkshire,Yorkshire and The Humber,Jennifer,North England,England
1-11352107426,71 Dental,PR25 2LR,"Leyland, PR25 2LR",53.691342,-2.697241,exact,South Ribble,,North West,Jennifer,North England,England
1-278705307,71 Park Street,W1K 7HN,"71 Park Street, London, W1K 7HN",51.511513,-0.155187,exact,Westminster,,London,Russel,Greater London,England
1-1774669725,710 Finchley Road NW11 7ND,NW11 7ND,"London, NW11 7ND",51.577058,-0.196711,exact,Barnet,,London,Russel,Greater London,England
1-1868855349,740 Dental,BH7 6BZ,"Boscombe, Bournemouth, Dorset, BH7 6BZ",50.728408,-1.833421,exact,"Bournemouth, Christchurch and Poole",Dorset,South West,Muhammad,"South England, Ireland, and Scotland",England
1-232758064,75 Gloucester Road,SW7 4SS,"London, SW7 4SS",51.494236,-0.182104,exact,Kensington and Chelsea,,London,Russel,Greater London,England
1-3837627385,76 Dental,B46 1RD,"Water Orton, Birmingham, West Midlands, B46 1RD",52.515996,-1.736983,exact,North Warwickshire,West Midlands,West Midlands,Shubhjoth,Midlands,England
1-232374667,76 Harley Street Limited,W1G 7HH,"London, W1G 7HH",51.52001,-0.14716,exact,Westminster,,London,Russel,Greater London,England
1-1509970124,765 Dental Care,S7 2BG,"Millhouses, Sheffield, South Yorkshire, S7 2BG",53.353532,-1.485858,exact,Sheffield,South Yorkshire,Yorkshire and The Humber,Shubhjoth,Midlands,England
1-16419902693,78 MPR,TN1 1RJ,"Mount Pleasant Road, Tunbridge Wells, TN1 1RJ",51.131897,0.263605,exact,Tunbridge Wells,,South East,Muhammad,"South England, Ireland, and Scotland",England
1-10818766565,7Oaks Clinic,TN13 1JF,"Sevenoaks, TN13 1JF",51.269057,0.193239,exact,Sevenoaks,,South East,Muhammad,"South England, Ireland, and Scotland",England
1-2335322798,8 To 8 Dental Practice Limited,GU7 1NN,"Wharf Street, Godalming, Surrey, GU7 1NN",51.185606,-0.610172,exact,Waverley,Surrey,South East,Muhammad,"South England, Ireland, and Scotland",England
1-25797195135,80 Kensington Dental Clinic,W8 4SG,"London, W8 4SG",51.501685,-0.192196,exact,Kensington and Chelsea,,London,Russel,Greater London,England
1-11760591835,854 Dental Health,BH9 2DS,"Bournemouth, BH9 2DS",50.752346,-1.876571,exact,"Bournemouth, Christchurch and Poole",,South West,Muhammad,"South England, Ireland, and Scotland",England
1-6232536491,92 Dental,W6 0LJ,"115a Glenthorne Road, London, W6 0LJ",51.494139,-0.232284,exact,Hammersmith and Fulham,,London,Russel,Greater London,England
1-305157907,99 Harley Street,W1G 6AQ,"London, W1G 6AQ",51.520907,-0.148118,exact,Westminster,,London,Russel,Greater London,England
1-303916400,A & D Dental Practice Ltd,NG1 3FB,"Nottingham, Nottinghamshire, NG1 3FB",52.958307,-1.149404,exact,Nottingham,Nottinghamshire,East Midlands,Shubhjoth,Midlands,England
1-198630309,A & H Dental Care,CV34 6AN,"Warwick, Warwickshire, CV34 6AN",52.27892,-1.592101,exact,Warwick,Warwickshire,West Midlands,Shubhjoth,Midlands,England
1-188661555,A A Tikare & Associates - Dental Surgery,DA11 0PA,"Gravesend, Kent, DA11 0PA",51.439922,0.36775,exact,Gravesham,Kent,South East,Russel,Greater London,England
1-187538698,A J Crosbie and Associates,SL6 8AJ,"6 Cookham Road, Maidenhead, Berkshire, SL6 8AJ",51.52561,-0.720069,exact,Windsor and Maidenhead,Berkshire,South East,Muhammad,"South England, Ireland, and Scotland",England
1-11582313009,A J Moore & Associates,NG10 4ER,"Long Eaton, Nottingham, Nottinghamshire, NG10 4ER",52.901855,-1.283671,exact,Erewash,Nottinghamshire,East Midlands,Shubhjoth,Midlands,England
1-11517626108,A K Dental Care,NN4 5EZ,"Northampton, NN4 5EZ",52.185021,-0.891762,exact,West Northamptonshire,NN4 5EZ,Midlands,Shubhjoth,Midlands,England
1-25610016098,A La Clinic,TW2 5QB,"Twickenham, TW2 5QB",51.441966,-0.344552,exact,Richmond upon Thames,TW2 5QB,London,Russel,Greater London,England
1-175710132,A R Brosgill - Pannal,HG3 1JP,"Pannal, Harrogate, North Yorkshire, HG3 1JP",53.959171,-1.532762,exact,North Yorkshire,North Yorkshire,Yorkshire and The Humber,Jennifer,North England,England
1-3972573008,A Silva Dental Studio,SE1 6FS,"One The Elephant, London, SE1 6FS",51.493748,-0.101391,exact,Southwark,,London,Russel,Greater London,England
1-200902271,A Smile For Life - Bradford Road,LS29 6BX,"Menston, Ilkley, West Yorkshire, LS29 6BX",53.888771,-1.729678,exact,Bradford,West Yorkshire,Yorkshire and The Humber,Jennifer,North England,England
1-1464217960,A W Brown Dental Practice,IP11 7EW,"Felixstowe, Suffolk, IP11 7EW",51.96256,1.35237,exact,East Suffolk,Suffolk,East of England,Muhammad,"South England, Ireland, and Scotland",England
1-191649274,A W Kaczmarski Dental Surgery,W3 9BA,"London, W3 9BA",51.502461,-0.282147,exact,Ealing,,London,Russel,Greater London,England
1-219242744,A W Robinson Dental Practice,PR1 5XE,"Preston, Lancashire, PR1 5XE",53.765443,-2.670025,exact,Preston,Lancashire,North West,Jennifer,North England,England
1-22042135321,A&H Smiles Limited,SG6 1SU,"Letchworth Garden City, Hertfordshire, SG6 1SU",51.9769,-0.22416,exact,North Hertfordshire,Hertfordshire,East of England,Muhammad,"South England, Ireland, and Scotland",England
1-219293910,A&S Dental Surgeons,BD9 5EU,"Bradford, West Yorkshire, BD9 5EU",53.805512,-1.790709,exact,Bradford,West Yorkshire,Yorkshire and The Humber,Jennifer,North England,England
1-6302260689,A.G.Smiles Dentistry & Aesthetics,TN34 1JG,"Hastings, East Sussex, TN34 1JG",50.854617,0.57713,exact,Hastings,East Sussex,South East,Muhammad,"South England, Ireland, and Scotland",England
1-6306640526,A1 Dental Care,BD3 7ND,"Bradford, West Yorkshire, BD3 7ND",53.799341,-1.710198,exact,Bradford,West Yorkshire,Yorkshire and The Humber,Jennifer,North England,England
1-1759222623,A1 Teeth,CT2 8LF,"Canterbury, Kent, CT2 8LF",51.282967,1.066812,exact,Canterbury,Kent,South East,Muhammad,"South England, Ireland, and Scotland",England
1-222706101,A3 Dental,W1G 9PT,"London, W1G 9PT",51.518851,-0.14666,exact,Westminster,,London,Russel,Greater London,England
1-2410993913,Abbey  Dental Care,CT12 4BU,"Minster, Ramsgate, Kent, CT12 4BU",51.331908,1.315546,exact,Thanet,Kent,South East,Muhammad,"South England, Ireland, and Scotland",England
1-196440918,Abbey Arms Dental Practice,E13 8HL,"London, E13 8HL",51.521147,0.020848,exact,Newham,,London,Russel,Greater London,England
1-189838880,Abbey Cottage Dental Practice Limited,HR8 1BP,"Ledbury, Herefordshire, HR8 1BP",52.039142,-2.424153,exact,"Herefordshire, County of",Herefordshire,West Midlands,Shubhjoth,Midlands,England
1-211477914,Abbey D Surgery Limited,SL1 3EG,"Slough, Berkshire, SL1 3EG",51.522595,-0.613779,exact,Slough,Berkshire,South East,Muhammad,"South England, Ireland, and Scotland",England
1-189708209,Abbey Dental,MK12 5JR,"Wolverton, Milton Keynes, Buckinghamshire, MK12 5JR",52.062018,-0.813715,exact,Milton Keynes,Buckinghamshire,South East,Muhammad,"South England, Ireland, and Scotland",England
1-20393506159,ABBEY DENTAL,MK12 5JR,"Wolverton, Milton Keynes, Buckinghamshire, MK12 5JR",52.062018,-0.813715,exact,Milton Keynes,Buckinghamshire,South East,Muhammad,"South England, Ireland, and Scotland",England
1-13827632348,Abbey Dental Care,YO8 4HE,"Selby, North Yorkshire, YO8 4HE",53.783583,-1.071726,exact,North Yorkshire,North Yorkshire,Yorkshire and The Humber,Jennifer,North England,England
1-4444808694,Abbey Dental Care,BA6 9EH,"Glastonbury, Somerset, BA6 9EH",51.146519,-2.718095,exact,Somerset,Somerset,South West,Muhammad,"South England, Ireland, and Scotland",England
1-15357233836,Abbey Dental Practice,IG11 7RL,"Barking, Essex, IG11 7RL",51.537199,0.080046,exact,Barking and Dagenham,Essex,London,Russel,Greater London,England
1-16526987438,Abbey Dental Practice,CW9 8UW,"Regency Way, Northwich, Cheshire, CW9 8UW",53.243139,-2.519555,exact,Cheshire West and Chester,Cheshire,North West,Jennifer,North England,England
1-211553397,Abbey Dental Practice,NE46 3LZ,"Hexham, Northumberland, NE46 3LZ",54.971068,-2.102093,exact,Northumberland,Northumberland,North East,Jennifer,North England,England
1-4543936301,Abbey Dental Practice - Bury,IP33 1UZ,"Bury St. Edmunds, Suffolk, IP33 1UZ",52.245469,0.716433,exact,West Suffolk,Suffolk,East of England,Muhammad,"South England, Ireland, and Scotland",England
1-4543936322,Abbey Dental Practice - Woolpit,IP30 9SA,"Woolpit, Bury St Edmunds, Suffolk, IP30 9SA",52.225361,0.887231,exact,Mid Suffolk,Suffolk,East of England,Muhammad,"South England, Ireland, and Scotland",England
1-15356918478,Abbey Dental South Harrow,HA2 9AJ,"Harrow, Middlesex, HA2 9AJ",51.56154,-0.374233,exact,Harrow,Middlesex,London,Russel,Greater London,England
1-15357233912,Abbey Dental Walthamstow,E17 7PJ,"London, E17 7PJ",51.580699,-0.032688,exact,Waltham Forest,,London,Russel,Greater London,England
1-15357233938,Abbey Dental Whitechapel,E1 1BJ,"Whitechapel, London, E1 1BJ",51.51932,-0.057301,exact,Tower Hamlets,,London,Russel,Greater London,England
1-12379010159,Abbey End Dental Practice,CV8 1LS,"Kenilworth, Warwickshire, CV8 1LS",52.344889,-1.581146,exact,Warwick,Warwickshire,West Midlands,Shubhjoth,Midlands,England
1-17189824765,Abbey House Dental - Festival Park,ST1 5UR,"Stoke-on-trent, ST1 5UR",53.025651,-2.197595,exact,Stoke-on-Trent,,West Midlands,Shubhjoth,Midlands,England
1-188251373,Abbey House Dental Practice,ST15 8PA,"Stone, Staffordshire, ST15 8PA",52.90082,-2.145097,exact,Stafford,Staffordshire,West Midlands,Shubhjoth,Midlands,England
1-16328043865,Abbey Mead Dental Practice and Implant Centre,PL19 8AU,"Tavistock, Devon, PL19 8AU",50.548331,-4.146119,exact,West Devon,Devon,South West,Muhammad,"South England, Ireland, and Scotland",England
1-210657846,Abbey Meads Dental Practice - Swindon,SN25 4YZ,"Swindon, SN25 4YZ",51.598017,-1.793286,exact,Swindon,,South West,Muhammad,"South England, Ireland, and Scotland",England
1-6711750520,Abbey Orthodontics,SO51 8BX,"Romsey, Hampshire, SO51 8BX",50.988819,-1.496066,exact,Test Valley,Hampshire,South East,Muhammad,"South England, Ireland, and Scotland",England
1-322016082,Abbey Road Dental Practice Limited,NW8 0AE,"London, NW8 0AE",51.537534,-0.184373,exact,Westminster,NW8 0AE,London,Russel,Greater London,England
1-2804637063,Abbey Street Dental Practice,BB5 1EH,"Accrington, Lancashire, BB5 1EH",53.752057,-2.361107,exact,Hyndburn,Lancashire,North West,Jennifer,North England,England
1-7649143183,Abbey Wood Dental Practice,SE2 9FL,"London, SE2 9FL",51.498046,0.121573,exact,Bexley,,London,Russel,Greater London,England
1-24423638289,Abbeydale Dental Care Centre,S7 1FJ,"Nether Edge, Sheffield, S7 1FJ",53.362046,-1.478062,exact,Sheffield,,Yorkshire and The Humber,Shubhjoth,Midlands,England
1-1111753302,Abbeydale Dental Care Centre-Sheffield,S7 1FJ,"Sheffield, South Yorkshire, S7 1FJ",53.362046,-1.478062,exact,Sheffield,South Yorkshire,Yorkshire and The Humber,Shubhjoth,Midlands,England
1-195002265,Abbeydale Road Family Dental Centre,S7 1FD,"Highfields, Sheffield, South Yorkshire, S7 1FD",53.365045,-1.47508,exact,Sheffield,South Yorkshire,Yorkshire and The Humber,Shubhjoth,Midlands,England
1-188677404,Abbeymead Dental Care,GL4 5UA,"Abbeymead, Gloucester, Gloucestershire, GL4 5UA",51.840608,-2.202965,exact,Gloucester,Gloucestershire,South West,Shubhjoth,Midlands,England
1-13507392432,Abbeymead Dental Centre,KT16 9AS,"Chertsey, Surrey, KT16 9AS",51.391019,-0.504743,exact,Runnymede,Surrey,South East,Russel,Greater London,England
1-229297730,Abbeyside Dental Practice,ST2 8BY,"Abbey Hulton, Stoke On Trent, Staffordshire, ST2 8BY",53.036353,-2.143853,exact,Stoke-on-Trent,Staffordshire,West Midlands,Shubhjoth,Midlands,England
1-18979415045,Abbeywood Dental,SE2 9BH,"London, SE2 9BH",51.498759,0.119445,exact,Greenwich,,London,Russel,Greater London,England
1-188166816,Abbots Langley Dental Practice,WD5 0AZ,"Abbots Langley, Hertfordshire, WD5 0AZ",51.706965,-0.419115,exact,Three Rivers,Hertfordshire,East of England,Russel,Greater London,England
1-6404591568,Abbots Lodge Dental Practice,BN16 3NL,"Rustington, Littlehampton, West Sussex, BN16 3NL",50.810337,-0.509315,exact,Arun,West Sussex,South East,Muhammad,"South England, Ireland, and Scotland",England
1-11682271194,Abbots Oak Dental Practice,LE67 4UF,"Coalville, Leicestershire, LE67 4UF",52.724376,-1.324201,exact,North West Leicestershire,Leicestershire,East Midlands,Shubhjoth,Midlands,England
1-1346256042,Abbotsbury Court Dental Practice,WR5 3TY,"Worcester, Worcestershire, WR5 3TY",52.171917,-2.205085,exact,Worcester,Worcestershire,West Midlands,Shubhjoth,Midlands,England
1-5252559046,Abbotsbury Dental Care,TQ12 2LZ,"4 Abbotsbury Road, Newton Abbot, Devon, TQ12 2LZ",50.532207,-3.610193,exact,Teignbridge,Devon,South West,Muhammad,"South England, Ireland, and Scotland",England
1-14735259566,Abbotsford House Dental Practice,B14 4LR,"Birmingham, B14 4LR",52.409782,-1.86901,exact,Birmingham,,West Midlands,Shubhjoth,Midlands,England
1-12952149722,ABC Dental Surgery,KT11 3DF,"Cobham, KT11 3DF",51.32834940535377,-0.4025708680688337,outcode_fallback,,,South East,Russel,Greater London,England
1-6313867344,Abercromby Health Centre,L7 7HG,"Edge Hill, Liverpool, Merseyside, L7 7HG",53.399049,-2.961744,exact,Liverpool,Merseyside,North West,Jennifer,North England,England
1-192648970,Aberdeen House Dental Practice,GU26 6LD,"Headley Road, Grayshott, Surrey, GU26 6LD",51.110558,-0.750851,exact,East Hampshire,Surrey,South East,Muhammad,"South England, Ireland, and Scotland",England
1-217012568,Abi Dental,SM3 9PL,"Sutton, Surrey, SM3 9PL",51.383269,-0.204539,exact,Sutton,Surrey,London,Russel,Greater London,England
1-25661051845,Abi Dental Care,W9 1BZ,"London, W9 1BZ",51.525401,-0.178397,exact,Westminster,,London,Russel,Greater London,England
1-3505354423,Abington Dental Practice,NN1 5AL,"Northampton, Northamptonshire, NN1 5AL",52.237903,-0.887664,exact,West Northamptonshire,Northamptonshire,East Midlands,Shubhjoth,Midlands,England
1-10291906622,Able Denture and Implant Clinic,GU15 3PU,"Camberley, Surrey, GU15 3PU",51.335675,-0.749828,exact,Surrey Heath,Surrey,South East,Muhammad,"South England, Ireland, and Scotland",England
1-20397136096,Abney Dental Practice,N16 7HU,"London, N16 7HU",51.5629,-0.073177,exact,Hackney,,London,Russel,Greater London,England
1-189316468,Absolute Dental,TQ7 1HX,"Bridge Street, Kingsbridge, Devon, TQ7 1HX",50.284505,-3.7767,exact,South Hams,Devon,South West,Muhammad,"South England, Ireland, and Scotland",England
1-8980779258,Absolute Dental,M25 0EQ,"Prestwich, Manchester, Greater Manchester, M25 0EQ",53.523804,-2.264058,exact,Bury,Greater Manchester,North West,Jennifer,North England,England
1-6382832601,AC Dentartis,IG6 1QJ,"Ilford, IG6 1QJ",51.587741,0.084952,exact,Redbridge,,London,Russel,Greater London,England
1-1738754792,Acacia Dental Practice Limited,HR7 4EY,"Bromyard, Herefordshire, HR7 4EY",52.185801,-2.517989,exact,"Herefordshire, County of",Herefordshire,West Midlands,Shubhjoth,Midlands,England
1-723970602,Academy Dental Care,GU47 0PR,"College Town, Sandhurst, Berkshire, GU47 0PR",51.340074,-0.776383,exact,Bracknell Forest,Berkshire,South East,Muhammad,"South England, Ireland, and Scotland",England
1-19891723860,Access Dental Services,TA1 2PX,"Blackbrook Park Avenue, Taunton, TA1 2PX",51.014077,-3.068003,exact,Somerset,,South West,Muhammad,"South England, Ireland, and Scotland",England
1-23926026159,Accessible Orthodontics,CV11 4DG,"Nuneaton, Warwickshire, CV11 4DG",52.52451,-1.464552,exact,Nuneaton and Bedworth,Warwickshire,West Midlands,Shubhjoth,Midlands,England
1-21976581725,Accord Dental Practice,GU15 3EJ,"Camberley, Surrey, GU15 3EJ",51.331034,-0.756471,exact,Surrey Heath,Surrey,South East,Muhammad,"South England, Ireland, and Scotland",England
1-21751287044,Accrington,BB5 5AB,"Accrington, Lancashire, BB5 5AB",53.760063,-2.367911,exact,Hyndburn,Lancashire,North West,Jennifer,North England,England
1-300581397,Accrington Road Dental Center,BB1 2AE,"Blackburn, Lancashire, BB1 2AE",53.74802,-2.454193,exact,Blackburn with Darwen,Lancashire,North West,Jennifer,North England,England
1-7193342812,Ace Dental,W1G 9ST,"Wimpole Street, London, W1G 9ST",51.517411,-0.147713,exact,Westminster,,London,Russel,Greater London,England
1-7928130510,ACE Dental - Harrow Weald,HA3 5JZ,"Harrow, Middlesex, HA3 5JZ",51.603841,-0.349169,exact,Harrow,Middlesex,London,Russel,Greater London,England
1-24525522175,Ace Dental – Knights Bridge,SW3 1RW,"London, SW3 1RW",51.498357,-0.163253,exact,Kensington and Chelsea,,London,Russel,Greater London,England
1-5320781528,ACE Dental - Wanstead,E11 2AA,"London, E11 2AA",51.579656,0.024394,exact,Redbridge,,London,Russel,Greater London,England
1-9523050556,Acer Aesthetics Ltd,PR1 6PJ,"Flintoff Way, Preston, PR1 6PJ",53.775687,-2.686318,exact,Preston,,North West,Jennifer,North England,England
1-9523051384,Acer Aesthetics Ltd,WN7 5SJ,"Parsonage Way, Leigh, WN7 5SJ",53.499416,-2.527795,exact,Wigan,,North West,Jennifer,North England,England
1-9523546465,Acer Aesthetics Ltd,B78 3HP,"Bonehill Road, Tamworth, B78 3HP",52.625797,-1.720091,exact,Lichfield,,West Midlands,Shubhjoth,Midlands,England
1-188036651,Acer Dental Practice,SS15 6AZ,"Basildon, Essex, SS15 6AZ",51.577977,0.421181,exact,Basildon,Essex,East of England,Muhammad,"South England, Ireland, and Scotland",England
1-307261718,ACH Dental Practice,GU11 1AY,"Hospital Hill, Aldershot, Hampshire, GU11 1AY",51.254362,-0.765632,exact,Rushmoor,Hampshire,South East,Muhammad,"South England, Ireland, and Scotland",England
1-15395058041,Acle Dental Surgery,NR13 3QX,"Norwich, Norfolk, NR13 3QX",52.639441,1.548624,exact,Broadland,NR13 3QX,East of England,Muhammad,"South England, Ireland, and Scotland",England
1-189718876,Acocks Green Dental Practice,B27 6BH,"Acocks Green, Birmingham, West Midlands, B27 6BH",52.446608,-1.822409,exact,Birmingham,West Midlands,West Midlands,Shubhjoth,Midlands,England
1-2156866109,Acomb Dental Practice,YO24 3BZ,"Acomb, York, North Yorkshire, YO24 3BZ",53.954421,-1.126931,exact,York,North Yorkshire,Yorkshire and The Humber,Jennifer,North England,England
1-214740159,Acorn Dental,B45 8NE,"Barnt Green, Birmingham, West Midlands, B45 8NE",52.361398,-1.990505,exact,Bromsgrove,West Midlands,West Midlands,Shubhjoth,Midlands,England
1-19573535276,Acorn Dental Care,SL1 3NT,"Slough, Berkshire, SL1 3NT",51.515441,-0.600463,exact,Slough,Berkshire,South East,Muhammad,"South England, Ireland, and Scotland",England
1-2111009941,Acorn Dental Care,SL6 8BW,"Maidenhead, Berkshire, SL6 8BW",51.523341,-0.712364,exact,Windsor and Maidenhead,Berkshire,South East,Muhammad,"South England, Ireland, and Scotland",England
1-5153124429,Acorn Dental Centre,LS29 9PA,"Ilkley, West Yorkshire, LS29 9PA",53.924776,-1.827513,exact,Bradford,West Yorkshire,Yorkshire and The Humber,Jennifer,North England,England
1-1521193688,Acorn Dental Health,SO30 4FQ,"Hedge End, Southampton, Hampshire, SO30 4FQ",50.91423,-1.299801,exact,Eastleigh,Hampshire,South East,Muhammad,"South England, Ireland, and Scotland",England
1-15763901564,Acorn Dental Practice,YO24 4LZ,"Acomb, York, North Yorkshire, YO24 4LZ",53.956208,-1.122993,exact,York,North Yorkshire,Yorkshire and The Humber,Jennifer,North England,England
1-192820060,Acorn Dental Surgery,GL4 3JT,"Gloucester, Gloucestershire, GL4 3JT",51.861435,-2.205934,exact,Gloucester,Gloucestershire,South West,Shubhjoth,Midlands,England
1-189951102,Acorn Implant & Dental Practice Limited - Swanshurst Lane,B13 0AW,"Kings Heath, Birmingham, West Midlands, B13 0AW",52.433811,-1.85957,exact,Birmingham,West Midlands,West Midlands,Shubhjoth,Midlands,England
1-12473397491,Acorn Orthodontics,GU51 4AB,"Reading Road North, Fleet, GU51 4AB",51.278683,-0.846419,exact,Hart,,South East,Muhammad,"South England, Ireland, and Scotland",England
1-195098004,Acre Medical Services,W7 3DB,"Hanwell, London, W7 3DB",51.524075,-0.341258,exact,Ealing,,London,Russel,Greater London,England
1-5849082514,Acton Dental Care,W3 9BJ,"London, W3 9BJ",51.508498,-0.276862,exact,Ealing,,London,Russel,Greater London,England
R1K69,Acton Health Centre,W3 8QE,"Church Road, London, W3 8QE",51.506215,-0.270176,exact,Ealing,,London,Russel,Greater London,England
1-6366926286,Acton Town Dental Practice,W3 8YF,"London, W3 8YF",51.501955,-0.270971,exact,Ealing,,London,Russel,Greater London,England
1-11941071585,Acton Vale Dentists,W3 7RW,"Acton, London, W3 7RW",51.506408,-0.257084,exact,Ealing,,London,Russel,Greater London,England
1-17192482131,AD Dental Consett,DH8 8LU,"Consett, County Durham, DH8 8LU",54.860675,-1.848449,exact,County Durham,County Durham,North East,Jennifer,North England,England
1-9748047225,AD Dental Newcastle,NE7 7UH,"Newcastle Upon Tyne, Tyne and Wear, NE7 7UH",55.009218,-1.577613,exact,North Tyneside,Tyne and Wear,North East,Jennifer,North England,England
1-209618088,Adam Sapera Dental Practice,NW3 4QT,"London, NW3 4QT",51.549841,-0.164454,exact,Camden,NW3 4QT,London,Russel,Greater London,England
1-3950047747,Adams House Dental Practice,BR5 1LA,"Petts Wood, Orpington, Kent, BR5 1LA",51.390084,0.07394,exact,Bromley,Kent,London,Russel,Greater London,England
1-7375362152,Addiscombe Dental Surgery,CR0 6AB,"Croydon, Surrey, CR0 6AB",51.379834,-0.085718,exact,Croydon,Surrey,London,Russel,Greater London,England
1-1597650029,Addison Dental Practice,CM20 1EP,"Hamstel Road, Harlow, Essex, CM20 1EP",51.771156,0.089076,exact,Harlow,Essex,East of England,Muhammad,"South England, Ireland, and Scotland",England
1-194669171,Addison Place Dental Practice,W11 4RJ,"London, W11 4RJ",51.506268,-0.213154,exact,Kensington and Chelsea,,London,Russel,Greater London,England
1-18908347917,Adel Dental Practice,LS16 7NR,"Leeds, LS16 7NR",53.854982,-1.591555,exact,Leeds,LS16 7NR,North East and Yorkshire,Jennifer,North England,England
1-2029761994,Adelaide House Dental Practice,MK40 2RN,"Bedford, Bedfordshire, MK40 2RN",52.140007,-0.47083,exact,Bedford,Bedfordshire,East of England,Muhammad,"South England, Ireland, and Scotland",England
1-389211739,Adelaide Square Dental Practice,MK40 2RW,"Bedford, Bedfordshire, MK40 2RW",52.140174,-0.471219,exact,Bedford,Bedfordshire,East of England,Muhammad,"South England, Ireland, and Scotland",England
1-229273196,Adelphi Dental Centre,PR1 7BH,"Preston, Lancashire, PR1 7BH",53.767049,-2.70948,exact,Preston,Lancashire,North West,Jennifer,North England,England
1-12717759490,Adentist4life,IG2 6PQ,"Ilford, IG2 6PQ",51.574402,0.076995,exact,Redbridge,,London,Russel,Greater London,England
1-10819725613,Adlington Dental Practice,PR7 4HE,"Adlington, Chorley, Lancashire, PR7 4HE",53.611218,-2.604824,exact,Chorley,Lancashire,North West,Jennifer,North England,England
1-5173491179,ADMECS Healthcare Limited,DT11 7DR,"Blandford Forum, Dorset, DT11 7DR",50.856804,-2.161351,exact,Dorset,Dorset,South West,Muhammad,"South England, Ireland, and Scotland",England
1-7926749811,Admiral House Dental Practice,HP4 2DJ,"Berkhamsted, Hertfordshire, HP4 2DJ",51.75938,-0.561936,exact,Dacorum,Hertfordshire,East of England,Muhammad,"South England, Ireland, and Scotland",England
1-220673365,Admired Clinic Clacton,CO15 4RY,"Clacton On Sea, Essex, CO15 4RY",51.815215,1.165053,exact,Tendring,Essex,East of England,Muhammad,"South England, Ireland, and Scotland",England
1-244685688,Advance Dental Care,SN1 5NX,"Swindon, Wiltshire, SN1 5NX",51.558955,-1.78667,exact,Swindon,Wiltshire,South West,Muhammad,"South England, Ireland, and Scotland",England
1-3113557375,Advance Dental Care,LS16 5BG,"Leeds, West Yorkshire, LS16 5BG",53.832925,-1.604669,exact,Leeds,West Yorkshire,Yorkshire and The Humber,Jennifer,North England,England
1-9012052026,ADVANCE DENTAL CARE,TW3 1NH,"Hounslow, Middlesex, TW3 1NH",51.470011,-0.357777,exact,Hounslow,Middlesex,London,Russel,Greater London,England
1-17410256897,Advance Dental Clinic,CM2 0JG,"Chelmsford, Essex, CM2 0JG",51.725113,0.465377,exact,Chelmsford,Essex,East of England,Muhammad,"South England, Ireland, and Scotland",England
1-304656816,Advance Dental Clinic Ltd,WF2 6BA,"Sandal, Wakefield, West Yorkshire, WF2 6BA",53.653523,-1.487984,exact,Wakefield,West Yorkshire,Yorkshire and The Humber,Jennifer,North England,England
1-2225815723,Advance Dental Practice,TA11 6SB,"Bancombe Business Park, Somerton, Somerset, TA11 6SB",51.059222,-2.748122,exact,Somerset,Somerset,South West,Muhammad,"South England, Ireland, and Scotland",England
1-217533040,Advance Dental Services Bourne End,SL8 5YP,"Bourne End, Buckinghamshire, SL8 5YP",51.577151,-0.710858,exact,Buckinghamshire,SL8 5YP,South East,Muhammad,"South England, Ireland, and Scotland",England
1-14836997036,Advance Dental Suite,NW6 4JD,"Kilburn, London, NW6 4JD",51.540811,-0.196226,exact,Camden,,London,Russel,Greater London,England
1-333302170,Advance Healthcare Logistics Ltd,CT3 3AW,"Ackholt Road, Aylesham, Canterbury, Kent, CT3 3AW",51.224667,1.209488,exact,Dover,Kent,South East,Muhammad,"South England, Ireland, and Scotland",England
1-22116413709,Advance Smiles & Orthodontics,L18 1LG,"Mossley Hill, Liverpool, L18 1LG",53.388721,-2.912403,exact,Liverpool,,North West,Jennifer,North England,England
1-11224985113,Advanced Care 2.0 Ltd,NE40 3HQ,"Ryton, NE40 3HQ",54.972738,-1.761487,exact,Gateshead,,North East,Jennifer,North England,England
1-19375060786,Advanced Dental Aesthetics,SS3 8BA,"Shoeburyness, Southend-on-sea, SS3 8BA",51.539344,0.778523,exact,Southend-on-Sea,,East of England,Muhammad,"South England, Ireland, and Scotland",England
1-335325127,Advanced Dental Practice,SE1 3TN,"London, SE1 3TN",51.499381,-0.080035,exact,Southwark,,London,Russel,Greater London,England
1-7664901418,Advent Dental Practice,CM2 0JY,"Chelmsford, CM2 0JY",51.728344,0.467855,exact,Chelmsford,,East of England,Muhammad,"South England, Ireland, and Scotland",England
1-7431953976,Aesdent,NE2 4QA,"Newcastle Upon Tyne, Tyne And Wear, NE2 4QA",54.983556,-1.61115,exact,Newcastle upon Tyne,Tyne And Wear,North East,Jennifer,North England,England
1-174104353,Aestcom - Harpenden,AL5 2TJ,"1c Leyton Road, Harpenden, Hertfordshire, AL5 2TJ",51.815692,-0.35712,exact,St Albans,Hertfordshire,East of England,Russel,Greater London,England
1-1564340699,Aesthetic and Implant Dentistry,TA4 1EL,"Rumwell, Taunton, Somerset, TA4 1EL",51.003363,-3.151735,exact,Somerset,Somerset,South West,Muhammad,"South England, Ireland, and Scotland",England
1-7317714407,Aesthetic Dental Clinique,RH1 4PA,"High Street, Bletchingley, Redhill, RH1 4PA",51.240834,-0.101493,exact,Tandridge,,South East,Muhammad,"South England, Ireland, and Scotland",England
1-302244098,Aesthetic Dental Solutions,FY8 5PA,"Lytham St Annes, Lancashire, FY8 5PA",53.738726,-2.965374,exact,Fylde,Lancashire,North West,Jennifer,North England,England
1-1400447819,Aesthetic Dental Studio,NG1 1HW,"Lace Market, Nottingham, Nottinghamshire, NG1 1HW",52.950931,-1.142568,exact,Nottingham,Nottinghamshire,East Midlands,Shubhjoth,Midlands,England
1-198922257,Aesthetic Dental Zone,SE22 8HN,"London, SE22 8HN",51.460151,-0.075463,exact,Southwark,,London,Russel,Greater London,England
1-195007214,Aesthetic Smiles,LE3 5EZ,"Leicester, Leicestershire, LE3 5EZ",52.640751,-1.151802,exact,Leicester,Leicestershire,East Midlands,Shubhjoth,Midlands,England
1-13811911660,Aesthetics Clinique LTD,E20 1GW,"London, E20 1GW",51.549225,-0.01189,exact,Newham,,London,Russel,Greater London,England
1-199251223,Aesthetics Dental and Implant Surgery - Moseley,B13 8JS,"Moseley, Birmingham, West Midlands, B13 8JS",52.446474,-1.88978,exact,Birmingham,West Midlands,West Midlands,Shubhjoth,Midlands,England
1-1901180758,Aesthetika Dental Studio,KT1 2BZ,"Kingston Upon Thames, Surrey, KT1 2BZ",51.404964,-0.303805,exact,Kingston upon Thames,Surrey,London,Russel,Greater London,England
1-3606431957,Aesthetique Dental Care,LS2 7EQ,"Leeds, West Yorkshire, LS2 7EQ",53.795468,-1.537982,exact,Leeds,West Yorkshire,Yorkshire and The Humber,Jennifer,North England,England
1-19882077109,Aesthetk,CM15 8LB,"Shenfield, Brentwood, Essex, CM15 8LB",51.629735,0.322219,exact,Brentwood,Essex,East of England,Muhammad,"South England, Ireland, and Scotland",England
1-2449184608,AF Dental Hackney,E9 6SG,"14 Collent Street, London, E9 6SG",51.544067,-0.048012,exact,Hackney,,London,Russel,Greater London,England
1-18583743121,AF Dental Hackney Dover,CT16 1BD,"Dover, CT16 1BD",51.127548,1.309817,exact,Dover,,South East,Muhammad,"South England, Ireland, and Scotland",England
1-22158179548,Affinity Dental Care - Gloucester,GL2 0LS,"Gloucester, Gloucestershire, GL2 0LS",51.870413,-2.223071,exact,Gloucester,Gloucestershire,South West,Shubhjoth,Midlands,England
1-189028294,Affinity Dental Clinic,SS14 1BN,"88 Town Square, Basildon, Essex, SS14 1BN",51.569928,0.458331,exact,Basildon,Essex,East of England,Muhammad,"South England, Ireland, and Scotland",England
1-302584288,AG Dentistry - Kensal Rise,NW10 3JN,"Kensal Rise, London, NW10 3JN",51.534832,-0.21985,exact,Brent,,London,Russel,Greater London,England
1-220044699,AG Dentistry - Kentish Town,NW5 2TJ,"London, NW5 2TJ",51.550435,-0.141048,exact,Camden,,London,Russel,Greater London,England
1-323868977,Agno Smile Ltd T/A Agno Dental and Aesthetics,WD3 1EF,"Rickmansworth, Hertfordshire, WD3 1EF",51.638756,-0.468441,exact,Three Rivers,Hertfordshire,East of England,Russel,Greater London,England
1-6948386300,Aigburth Smile Centre Limited,L17 4JU,"Liverpool, Merseyside, L17 4JU",53.376472,-2.942145,exact,Liverpool,Merseyside,North West,Jennifer,North England,England
1-22740307149,Ainsdale Dental Practice,PR8 3QF,"Southport, PR8 3QF",53.594997,-3.038834,exact,Sefton,,North West,Jennifer,North England,England
1-2667953736,Ainsty Dental Practice,YO26 6AR,"York, North Yorkshire, YO26 6AR",53.967317,-1.129162,exact,York,North Yorkshire,Yorkshire and The Humber,Jennifer,North England,England
1-1299165071,Ainsworth Village Dental Practice,BL2 5RA,"Ainsworth, Bolton, Lancashire, BL2 5RA",53.588151,-2.357682,exact,Bury,Lancashire,North West,Jennifer,North England,England
1-9158052576,Airedale Dental Practice,WF10 3JJ,"Castleford, WF10 3JJ",53.723557,-1.31464,exact,Wakefield,,Yorkshire and The Humber,Jennifer,North England,England
1-4277153163,AJ Dental Care,EN6 2QU,"Potters Bar, Hertfordshire, EN6 2QU",51.691003,-0.178268,exact,Hertsmere,Hertfordshire,East of England,Russel,Greater London,England
1-18446351432,AJM Dental Group,PR2 3NB,"Fulwood, Preston, Lancashire, PR2 3NB",53.795795,-2.716706,exact,Preston,Lancashire,North West,Jennifer,North England,England
1-26119291395,Akeman Dental Ltd,CB4 1RL,"196 - 198 Green End Road, Cambridge, CB4 1RL",52.220074,0.146932,exact,Cambridge,,East of England,Muhammad,"South England, Ireland, and Scotland",England
1-200117468,Alan Lam Family Dental Practice Ltd,DH3 3PQ,"Ropery Lane, Chester Le Street, County Durham, DH3 3PQ",54.851643,-1.572374,exact,County Durham,County Durham,North East,Jennifer,North England,England
1-6672267945,Alan Wilson Dentistry,KT19 8DH,"55 High Street, Epsom, KT19 8DH",51.333521,-0.265929,exact,Epsom and Ewell,,South East,Russel,Greater London,England
1-11018250627,Alaska House Dental Practice,DT11 7PS,"Blandford Forum, Dorset, DT11 7PS",50.858392,-2.164098,exact,Dorset,Dorset,South West,Muhammad,"South England, Ireland, and Scotland",England
1-188553958,Al-Attar & Associates Dental Surgeons,E2 9PJ,"Bethnal Green, London, E2 9PJ",51.529975,-0.053978,exact,Tower Hamlets,,London,Russel,Greater London,England
1-18216811422,Alba Dental Care,E1 7NE,"London, E1 7NE",51.517703,-0.074292,exact,Tower Hamlets,,London,Russel,Greater London,England
1-211371862,Alba Dental Care,CM7 9BY,"Braintree, Essex, CM7 9BY",51.879954,0.554024,exact,Braintree,Essex,East of England,Muhammad,"South England, Ireland, and Scotland",England
1-15124672825,Alban City Dental & Surgical Centre,AL1 3SF,"St. Albans, AL1 3SF",51.756381,-0.333571,exact,St Albans,AL1 3SF,East of England,Russel,Greater London,England
1-200152274,Albany Dental Care,FY8 4GW,"Albany Road, Lytham St Annes, Lancashire, FY8 4GW",53.747522,-2.998709,exact,Fylde,Lancashire,North West,Jennifer,North England,England
1-20635860363,Albany Dental Centre,NW3 2BH,"London, NW3 2BH",51.545478,-0.155139,exact,Camden,,London,Russel,Greater London,England
1-4518481726,Albany Dental Practice,TN40 1DF,"Bexhill On Sea, East Sussex, TN40 1DF",50.839765,0.472505,exact,Rother,East Sussex,South East,Muhammad,"South England, Ireland, and Scotland",England
1-2103827689,Albert House Dental Surgery,BB8 0RY,"Colne, Lancashire, BB8 0RY",53.856044,-2.172973,exact,Pendle,Lancashire,North West,Jennifer,North England,England
1-12777957569,Albert Road Dental Practice Limited,WR11 4JX,"Evesham, Worcestershire, WR11 4JX",52.096043,-1.948096,exact,Wychavon,Worcestershire,West Midlands,Shubhjoth,Midlands,England
1-5964227769,Albion Dental Practice,BN2 9NE,"Brighton, East Sussex, BN2 9NE",50.827997,-0.133795,exact,Brighton and Hove,East Sussex,South East,Muhammad,"South England, Ireland, and Scotland",England
1-2037783669,Albion Place Dental Practice,ME14 5DY,"Maidstone, Kent, ME14 5DY",51.274205,0.529571,exact,Maidstone,Kent,South East,Muhammad,"South England, Ireland, and Scotland",England
1-210845974,Albrighton Dental Practice,WV7 3QG,"Albrighton, Wolverhampton, West Midlands, WV7 3QG",52.635501,-2.276831,exact,Shropshire,West Midlands,West Midlands,Shubhjoth,Midlands,England
1-211341410,Alchemy Dental Practice Limited - Crewe,CW2 7HT,"Crewe, Cheshire, CW2 7HT",53.093375,-2.441414,exact,Cheshire East,Cheshire,North West,Jennifer,North England,England
1-211341627,Alchemy Dental Practice Limited - Stoke,ST4 2EQ,"Queen Anne Street, Stoke On Trent, Staffordshire, ST4 2EQ",53.010529,-2.182219,exact,Stoke-on-Trent,Staffordshire,West Midlands,Shubhjoth,Midlands,England
1-197985047,Aldeburgh Dental Practice,IP15 5AN,"Aldeburgh, Suffolk, IP15 5AN",52.150955,1.600996,exact,East Suffolk,Suffolk,East of England,Muhammad,"South England, Ireland, and Scotland",England
1-5375479923,Alder Road Practice,BH12 5BL,"300 Alder Road, Poole, BH12 5BL",50.745029,-1.910803,exact,"Bournemouth, Christchurch and Poole",,South West,Muhammad,"South England, Ireland, and Scotland",England
1-7454747755,Alderley Dental,SK9 7EG,"Alderley Edge, Cheshire, SK9 7EG",53.301862,-2.236877,exact,Cheshire East,Cheshire,North West,Jennifer,North England,England
1-13548554260,Alderney House Dental Practice,GU34 1DE,"Alton, Hampshire, GU34 1DE",51.151532,-0.971926,exact,East Hampshire,Hampshire,South East,Muhammad,"South England, Ireland, and Scotland",England
1-6307558900,Aldershot Dental Centre,GU11 3JD,"Queens Road, Aldershot, GU11 3JD",51.248137,-0.768808,exact,Rushmoor,,South East,Muhammad,"South England, Ireland, and Scotland",England
1-329619270,Aldershot Dental Practice,GU11 1JR,"Aldershot, Hampshire, GU11 1JR",51.248434,-0.765461,exact,Rushmoor,Hampshire,South East,Muhammad,"South England, Ireland, and Scotland",England
1-3264459705,Aldgate House Dental Care,E1 2JT,"London, E1 2JT",51.514596,-0.059808,exact,Tower Hamlets,,London,Russel,Greater London,England
1-486399573,Aldridge Dental Practice,WS9 8AJ,"Anchor Meadow, Aldridge, Walsall, West Midlands, WS9 8AJ",52.602529,-1.921194,exact,Walsall,West Midlands,West Midlands,Shubhjoth,Midlands,England
1-269150259,Aldridge House Dental Practice,WS9 8LX,"Aldridge, Walsall, West Midlands, WS9 8LX",52.604952,-1.916036,exact,Walsall,West Midlands,West Midlands,Shubhjoth,Midlands,England
1-207750502,Aldridge Road Dental Practice,B44 8TB,"Great Barr, Birmingham, West Midlands, B44 8TB",52.543352,-1.90216,exact,Birmingham,West Midlands,West Midlands,Shubhjoth,Midlands,England
1-17410257075,Alex Jones Dentistry Barnsley,S70 2RD,"Sackville Street, Barnsley, South Yorkshire, S70 2RD",53.553488,-1.486942,exact,Barnsley,South Yorkshire,Yorkshire and The Humber,Shubhjoth,Midlands,England
1-17410257112,Alex Jones Dentistry Penistone,S36 6BS,"Penistone, Sheffield, S36 6BS",53.523341,-1.631233,exact,Barnsley,,Yorkshire and The Humber,Shubhjoth,Midlands,England
1-7701992283,Alexander House Dental Practice,AL1 3ET,"St. Albans, AL1 3ET",51.756076,-0.335494,exact,St Albans,,East of England,Russel,Greater London,England
1-188416830,Alexander Langdon Dental Practice,EN5 5SU,"Barnet, Hertfordshire, EN5 5SU",51.65781,-0.201473,exact,Barnet,Hertfordshire,London,Russel,Greater London,England
1-14500648689,Alexanders Dental Practice - Waltham Abbey,EN9 1NN,"Waltham Abbey, Essex, EN9 1NN",51.686018,0.002574,exact,Epping Forest,Essex,East of England,Russel,Greater London,England
1-188868126,Alexandra Dental Care,DE11 9AZ,"Swadlincote, Derbyshire, DE11 9AZ",52.771462,-1.559048,exact,South Derbyshire,Derbyshire,East Midlands,Shubhjoth,Midlands,England
1-189232596,Alexandra Dental Practice,KT17 4DB,"Epsom, Surrey, KT17 4DB",51.330493,-0.249808,exact,Epsom and Ewell,Surrey,South East,Russel,Greater London,England
1-3810498781,Alexandra Dental Practice,HP2 4AG,"Hemel Hempstead, Hertfordshire, HP2 4AG",51.753463,-0.469301,exact,Dacorum,Hertfordshire,East of England,Muhammad,"South England, Ireland, and Scotland",England
1-4646258262,Alexandra Dental Practice,RG1 5AS,"Reading, Berkshire, RG1 5AS",51.451747,-0.955782,exact,Reading,Berkshire,South East,Muhammad,"South England, Ireland, and Scotland",England
1-1043572375,Alexandra Park Dental Practice,N22 7XH,"London, N22 7XH",51.599573,-0.132733,exact,Haringey,,London,Russel,Greater London,England
1-19887527480,Alexandra Road Dental Practice,LS18 4HD,"Horsforth, Leeds, West Yorkshire, LS18 4HD",53.836979,-1.630251,exact,Leeds,West Yorkshire,Yorkshire and The Humber,Jennifer,North England,England
1-25352031211,Al-FaPerio Clinic,IG9 5BY,"Buckhurst Hill, Essex, IG9 5BY",51.625113,0.044636,exact,Epping Forest,Essex,East of England,Russel,Greater London,England
1-219767878,Alford Dental Care,LN13 9AQ,"Alford, Lincolnshire, LN13 9AQ",53.259089,0.179941,exact,East Lindsey,Lincolnshire,East Midlands,Shubhjoth,Midlands,England
1-20709788015,Alfreton Primary Care Centre,DE55 7AH,"Alfreton, Derbyshire, DE55 7AH",53.098144,-1.391457,exact,Amber Valley,Derbyshire,East Midlands,Shubhjoth,Midlands,England
1-396169179,Align and Smile Limited,E14 9PA,"Blackwall Way, London, E14 9PA",51.505738,-0.005167,exact,Tower Hamlets,,London,Russel,Greater London,England
1-212908441,Aligndent Limited,TN23 1JJ,"29-31 New Rents, Ashford, Kent, TN23 1JJ",51.150006,0.869398,exact,Ashford,Kent,South East,Muhammad,"South England, Ireland, and Scotland",England
1-758593232,Aligndent NK Limited,DA11 9AX,"Grove Road, Northfleet, Kent, DA11 9AX",51.450822,0.324169,exact,Gravesham,Kent,South East,Russel,Greater London,England
1-2061804068,Aligned Orthodontics,M27 5AD,"Swinton, Manchester, Lancashire, M27 5AD",53.509685,-2.335368,exact,Salford,Lancashire,North West,Jennifer,North England,England
1-188985272,Alington Dental,BH2 5QR,"Bournemouth, Dorset, BH2 5QR",50.720419,-1.892605,exact,"Bournemouth, Christchurch and Poole",Dorset,South West,Muhammad,"South England, Ireland, and Scotland",England
1-189269552,Alistair Bartlett Dental Practices - Ashington,NE63 0HD,"10a Milburn Road, Ashington, Northumberland, NE63 0HD",55.179188,-1.565,exact,Northumberland,Northumberland,North East,Jennifer,North England,England
1-189269515,Alistair Bartlett Dental Practices - Hadrian Park,NE28 9UY,"Addington Drive, Hadrian Park, Wallsend, Tyne and Wear, NE28 9UY",55.016088,-1.51153,exact,North Tyneside,Tyne and Wear,North East,Jennifer,North England,England
1-2458811751,Alkali Dental Studios,SW15 6TG,"London, SW15 6TG",51.46143,-0.21898,exact,Wandsworth,,London,Russel,Greater London,England
1-2253969302,Alkrington Dental,M24 1DZ,"Middleton, Manchester, Lancashire, M24 1DZ",53.543242,-2.196559,exact,Rochdale,Lancashire,North West,Jennifer,North England,England
1-2741021191,All Orthodontics,W3 8EB,"London, W3 8EB",51.507611,-0.27704,exact,Ealing,,London,Russel,Greater London,England
1-1870734025,All Saints Dental Care,E14 0ED,"Poplar, London, E14 0ED",51.511435,-0.011735,exact,Tower Hamlets,,London,Russel,Greater London,England
1-12682692779,All Saints Dental Clinic,B14 7RA,"2d Vicarage Road, Kings Heath, Birmingham, B14 7RA",52.432166,-1.895066,exact,Birmingham,,West Midlands,Shubhjoth,Midlands,England
1-13788549422,All Saints Green Dental Clinic,NR1 3LY,"Norwich, Norfolk, NR1 3LY",52.624054,1.294977,exact,Norwich,Norfolk,East of England,Muhammad,"South England, Ireland, and Scotland",England
1-189087156,All Smile Dental,DH3 3EZ,"Chester Le Street, County Durham, DH3 3EZ",54.85863,-1.576163,exact,County Durham,County Durham,North East,Jennifer,North England,England
1-11381774794,All Smiles Clinic,W11 1HA,"London, W11 1HA",51.517771,-0.203825,exact,Kensington and Chelsea,,London,Russel,Greater London,England
1-2672239581,All Smiles Dental Care,RM12 4TG,"Hornchurch, Essex, RM12 4TG",51.56488,0.193552,exact,Havering,Essex,London,Russel,Greater London,England
1-10676400516,All Smiles Dental Practice,LN1 1XP,"Lincoln, Lincolnshire, LN1 1XP",53.230242,-0.544291,exact,Lincoln,Lincolnshire,East Midlands,Shubhjoth,Midlands,England
1-16473855707,All Smiles Dental Practice,BR1 1JQ,"Bromley, BR1 1JQ",51.403497,0.015425,exact,Bromley,,London,Russel,Greater London,England
1-377856722,All Smiles in Finchley,N12 9EN,"North Finchley, London, N12 9EN",51.612583,-0.174909,exact,Barnet,,London,Russel,Greater London,England
1-3083324007,AllClear Dental Centre,CR0 1LH,"Wellesley Road, Croydon, Surrey, CR0 1LH",51.374895,-0.096671,exact,Croydon,Surrey,London,Russel,Greater London,England
1-17410594219,Allen House Dental Ipswich,IP1 3LN,"Ipswich, Suffolk, IP1 3LN",52.061241,1.148662,exact,Ipswich,Suffolk,East of England,Muhammad,"South England, Ireland, and Scotland",England
1-5868391178,Allen House Dental Practice,CW1 6EJ,"Crewe, Cheshire, CW1 6EJ",53.097391,-2.429807,exact,Cheshire East,Cheshire,North West,Jennifer,North England,England
1-12552391165,Allenton Dental Care,DE24 9AD,"Derby, DE24 9AD",52.888567,-1.450483,exact,Derby,,East Midlands,Shubhjoth,Midlands,England
1-13102023076,Allesley Park Dental Practice,CV5 9JB,"Coventry, West Midlands, CV5 9JB",52.413794,-1.557517,exact,Coventry,West Midlands,West Midlands,Shubhjoth,Midlands,England
1-195063624,Allestree Dental Practice,DE22 2RP,"Allestree, Derby, Derbyshire, DE22 2RP",52.943103,-1.496669,exact,Derby,Derbyshire,East Midlands,Shubhjoth,Midlands,England
1-2582183640,Alliance Dentistry,SY8 1FB,"Ludlow, Shropshire, SY8 1FB",52.364719,-2.693522,exact,Shropshire,Shropshire,West Midlands,Shubhjoth,Midlands,England
1-16478227017,Allington Dental Practice,DT6 5BJ,"Bridport, Dorset, DT6 5BJ",50.734269,-2.763914,exact,Dorset,Dorset,South West,Muhammad,"South England, Ireland, and Scotland",England
1-18318850591,Allport Dental Surgery,CH62 7HL,"Bromborough, Wirral, Merseyside, CH62 7HL",53.328318,-2.97787,exact,Wirral,Merseyside,North West,Jennifer,North England,England
1-19139719344,Allround Dental Ltd,RH13 5AA,"Queen Street, Horsham, RH13 5AA",51.0607,-0.323033,exact,Horsham,,South East,Muhammad,"South England, Ireland, and Scotland",England
1-241800096,Allsmiles Dentalcare,MK4 4DD,"Westcroft District Centre, Milton Keynes, Buckinghamshire, MK4 4DD",52.004873,-0.794699,exact,Milton Keynes,Buckinghamshire,South East,Muhammad,"South England, Ireland, and Scotland",England
1-196477231,Allsopp & Associates Dental Practice - Bridge Street,WS1 1HR,"Walsall, West Midlands, WS1 1HR",52.58478,-1.978831,exact,Walsall,West Midlands,West Midlands,Shubhjoth,Midlands,England
1-578133574,Allsopp @ Birmingham Road Ltd,WS1 2LT,"Walsall, West Midlands, WS1 2LT",52.579853,-1.974362,exact,Walsall,West Midlands,West Midlands,Shubhjoth,Midlands,England
1-9604905661,Allure Dental Care,EN5 2EP,"Barnet, EN5 2EP",51.650101,-0.197759,exact,Barnet,,London,Russel,Greater London,England
1-9591006548,Alma Dental Practice,NE29 0LZ,"North Shields, Tyne and Wear, NE29 0LZ",55.012052,-1.450202,exact,North Tyneside,NE29 0LZ,North East and Yorkshire,Jennifer,North England,England
1-11817015237,Alma Medica,SL4 3HH,"Windsor, Berkshire, SL4 3HH",51.479534,-0.616266,exact,Windsor and Maidenhead,Berkshire,South East,Muhammad,"South England, Ireland, and Scotland",England
1-14928844861,Alma Terrace Dental Practice,CA7 4DS,"Silloth, Wigton, Cumbria, CA7 4DS",54.872883,-3.386419,exact,Cumberland,Cumbria,North West,Jennifer,North England,England
1-21683021042,Almás - Dentistry & Aesthetics,W3 6LP,"London, W3 6LP",51.506942,-0.270725,exact,Ealing,W3 6LP,London,Russel,Greater London,England
1-948991093,Almás - Dentistry & Aesthetics,NW2 3DD,"London, NW2 3DD",51.554563,-0.217017,exact,Brent,,London,Russel,Greater London,England
1-1535859837,Almond House Dental Practice,L30 0QG,"Fleetwoods Lane, Bootle, Merseyside, L30 0QG",53.489918,-2.984749,exact,Sefton,Merseyside,North West,Jennifer,North England,England
1-189660733,Almondbury Dental Practice,HD5 8LR,"Almondbury, Huddersfield, West Yorkshire, HD5 8LR",53.63617,-1.753782,exact,Kirklees,West Yorkshire,Yorkshire and The Humber,Jennifer,North England,England
1-393774256,Almondsbury Dental Practice,BS32 4DX,"Almondsbury, Bristol, Avon, BS32 4DX",51.556087,-2.574055,exact,South Gloucestershire,Avon,South West,Shubhjoth,Midlands,England
1-15500460537,Alnwick Dental Practice,NE66 1PY,"3 Bondgate Without, Alnwick, NE66 1PY",55.411203,-1.701272,exact,Northumberland,,North East,Jennifer,North England,England
1-410048815,Aloe Vera Dental Studio,CM1 6LL,"Springfield, Chelmsford, Essex, CM1 6LL",51.747683,0.490714,exact,Chelmsford,Essex,East of England,Muhammad,"South England, Ireland, and Scotland",England
1-3229035722,Alpha Dental Care,BN43 5UA,"Shoreham By Sea, West Sussex, BN43 5UA",50.835176,-0.27239,exact,Adur,West Sussex,South East,Muhammad,"South England, Ireland, and Scotland",England
1-9635387020,Alpha Dental Care Ashgate,S40 4AQ,"Chesterfield, Derbyshire, S40 4AQ",53.239158,-1.447387,exact,Chesterfield,Derbyshire,East Midlands,Shubhjoth,Midlands,England
1-11729858909,Alpha Dental Care Blaydon,NE21 5PU,"Lucy Street, Blaydon-on-tyne, NE21 5PU",54.963068,-1.711473,exact,Gateshead,,North East,Jennifer,North England,England
1-9635387121,Alpha Dental Care Bolton,BL2 6PA,"Bolton, Lancashire, BL2 6PA",53.580694,-2.385652,exact,Bolton,Lancashire,North West,Jennifer,North England,England
1-11510394599,Alpha Dental Care Capehill,B66 4JX,"Smethwick, West Midlands, B66 4JX",52.486444,-1.960941,exact,Sandwell,West Midlands,West Midlands,Shubhjoth,Midlands,England
1-194290092,Alpha Dental Care Framwellgate,DH1 5EJ,"Framwellgatemoor, Durham, County Durham, DH1 5EJ",54.794714,-1.590502,exact,County Durham,County Durham,North East,Jennifer,North England,England
1-11729858889,Alpha Dental Care Gosforth,NE3 4AA,"Gosforth, Newcastle Upon Tyne, Tyne and Wear, NE3 4AA",55.002987,-1.620358,exact,Newcastle upon Tyne,Tyne and Wear,North East,Jennifer,North England,England
1-9635387175,Alpha Dental Care Ivy Cottage,S60 2DJ,"Rotherham, South Yorkshire, S60 2DJ",53.429338,-1.355137,exact,Rotherham,South Yorkshire,Yorkshire and The Humber,Shubhjoth,Midlands,England
1-11729858868,Alpha Dental Care Jesmond,NE2 2DJ,"Newcastle Upon Tyne, NE2 2DJ",54.992567,-1.604717,exact,Newcastle upon Tyne,,North East,Jennifer,North England,England
1-11729858930,Alpha Dental Care Laburnum,NE28 8HG,"Wallsend, Tyne and Wear, NE28 8HG",54.993557,-1.533872,exact,North Tyneside,Tyne and Wear,North East,Jennifer,North England,England
1-1488461871,Alpha Dental Care M60,OL8 4SR,"Oldham, Lancashire, OL8 4SR",53.520196,-2.138446,exact,Oldham,Lancashire,North West,Jennifer,North England,England
1-11523273309,Alpha Dental Care Market Harborough,LE16 9HF,"Market Harborough, Leicestershire, LE16 9HF",52.466662,-0.915884,exact,Harborough,Leicestershire,East Midlands,Shubhjoth,Midlands,England
1-402281990,Alpha Dental Care Mersea Road,CO2 8QY,"Colchester, Essex, CO2 8QY",51.86566,0.908172,exact,Colchester,Essex,East of England,Muhammad,"South England, Ireland, and Scotland",England
1-11729858960,Alpha Dental Care North Shields,NE30 1PW,"North Shields, Tyne and Wear, NE30 1PW",55.010608,-1.444749,exact,North Tyneside,Tyne and Wear,North East,Jennifer,North England,England
1-11523272875,Alpha Dental Care Nottingham,NG3 2FW,"Nottingham, Nottinghamshire, NG3 2FW",52.957886,-1.128526,exact,Nottingham,Nottinghamshire,East Midlands,Shubhjoth,Midlands,England
1-194971906,Alpha Dental Care Prettygate,CO3 4EQ,"Prettygate, Colchester, Essex, CO3 4EQ",51.879928,0.8648,exact,Colchester,Essex,East of England,Muhammad,"South England, Ireland, and Scotland",England
1-13016185643,Alpha Dental Care Quayside,M35 0AN,"Failsworth, Manchester, Greater Manchester, M35 0AN",53.509678,-2.16118,exact,Oldham,Greater Manchester,North West,Jennifer,North England,England
1-11729858845,Alpha Dental Care Regent Terrace,NE8 1LU,"Gateshead, Tyne and Wear, NE8 1LU",54.960592,-1.604092,exact,Gateshead,Tyne and Wear,North East,Jennifer,North England,England
1-189367181,Alpha Dental Care Victoria Road,NE31 1LR,"Hebburn, Tyne and Wear, NE31 1LR",54.970431,-1.521221,exact,South Tyneside,Tyne and Wear,North East,Jennifer,North England,England
1-5907407585,Alpha Dental Studio,YO62 6AD,"Kirkbymoorside, York, North Yorkshire, YO62 6AD",54.268858,-0.93368,exact,North Yorkshire,North Yorkshire,Yorkshire and The Humber,Jennifer,North England,England
1-5907407522,Alpha Dental Studio Ayton,TS9 6BW,"Great Ayton, Middlesbrough, North Yorkshire, TS9 6BW",54.488464,-1.133568,exact,North Yorkshire,North Yorkshire,Yorkshire and The Humber,Jennifer,North England,England
1-187602095,Alpha Dental Studio Bedale,DL8 1AW,"The Bridge, Aiskew Bedale, North Yorkshire, DL8 1AW",54.288251,-1.585566,exact,North Yorkshire,North Yorkshire,Yorkshire and The Humber,Jennifer,North England,England
1-190780229,Alpha Dental Studio Catterick,DL9 4DH,"Catterick Garrison, North Yorkshire, DL9 4DH",54.375524,-1.708394,exact,North Yorkshire,North Yorkshire,Yorkshire and The Humber,Jennifer,North England,England
1-659879277,Alpha Dental Studio Chester-Le -Street,DH2 2TT,"47 Gibside, Chester Le Street, County Durham, DH2 2TT",54.854537,-1.593324,exact,County Durham,County Durham,North East,Jennifer,North England,England
1-5907407467,Alpha Dental Studio Chester-le-Street,DH2 2TT,"Chester Le Street, DH2 2TT",54.854537,-1.593324,exact,County Durham,,North East,Jennifer,North England,England
1-190402001,Alpha Dental Studio Fairfield,TS19 7PP,"Fairfield, Stockton-on-Tees, Cleveland, TS19 7PP",54.566107,-1.360821,exact,Stockton-on-Tees,Cleveland,North East,Jennifer,North England,England
1-199701078,Alpha Dental Studio Great Ayton,TS9 6BW,"Great Ayton, Middlesbrough, North Yorkshire, TS9 6BW",54.488464,-1.133568,exact,North Yorkshire,North Yorkshire,Yorkshire and The Humber,Jennifer,North England,England
1-401491572,Alpha Dental Studio Kirkbymoorside,YO62 6AD,"Kirkbymoorside, York, North Yorkshire, YO62 6AD",54.268858,-0.93368,exact,North Yorkshire,North Yorkshire,Yorkshire and The Humber,Jennifer,North England,England
1-19390216370,Alpha Dental Studio Leyburn,DL8 5AH,"Leyburn, DL8 5AH",54.310672,-1.830427,exact,North Yorkshire,,Yorkshire and The Humber,Jennifer,North England,England
1-192467032,Alpha Dental Studio Northallerton,DL6 1DY,"Northallerton, North Yorkshire, DL6 1DY",54.343488,-1.433312,exact,North Yorkshire,North Yorkshire,Yorkshire and The Humber,Jennifer,North England,England
1-217677130,Alpha House Dental Practice,CT7 9EQ,"Birchington, Kent, CT7 9EQ",51.376819,1.306001,exact,Thanet,Kent,South East,Muhammad,"South England, Ireland, and Scotland",England
1-2176864884,Alpha Windmill (Bedale) Limited,DL8 1AW,"The Bridge, Aiskew Bedale, North Yorkshire, DL8 1AW",54.288251,-1.585566,exact,North Yorkshire,North Yorkshire,Yorkshire and The Humber,Jennifer,North England,England
1-2119757328,Alpha Windmill (York) Limited,YO26 5PA,"Beckfield Lane, Acomb, York, North Yorkshire, YO26 5PA",53.96266,-1.135279,exact,York,North Yorkshire,Yorkshire and The Humber,Jennifer,North England,England
1-1747053724,Alrewas Dental Practice Ltd,DE13 7AE,"Alrewas, Burton on Trent, Staffordshire, DE13 7AE",52.732557,-1.747235,exact,Lichfield,Staffordshire,West Midlands,Shubhjoth,Midlands,England
1-4816932980,Alsager Dental Practice,ST7 2ET,"Alsager, Stoke-on-trent, ST7 2ET",53.095519,-2.308842,exact,Cheshire East,,North West,Shubhjoth,Midlands,England
1-2374201287,Alston Dental Practice,CA9 3QX,"Church Road, Alston, CA9 3QX",54.80079986440676,-2.4130506101694924,outcode_fallback,,,North West,Jennifer,North England,England
1-1357122707,Altmore Dental Practice,E14 3UU,"Isle of Dogs, London, E14 3UU",51.495418,-0.007491,exact,Tower Hamlets,London,London,Russel,Greater London,England
1-16892899597,Alton Dental - Anstey Road,GU34 2RE,"Alton, GU34 2RE",51.153942,-0.967826,exact,East Hampshire,,South East,Muhammad,"South England, Ireland, and Scotland",England
1-16892899627,Alton Dental - Market Square,GU34 1HG,"Alton, Hampshire, GU34 1HG",51.14901,-0.978645,exact,East Hampshire,Hampshire,South East,Muhammad,"South England, Ireland, and Scotland",England
1-7888468452,Altrincham Dental Practice,WA14 4RH,"Altrincham, Cheshire, WA14 4RH",53.396038,-2.352565,exact,Trafford,Cheshire,North West,Jennifer,North England,England
1-12304396444,Altrincham Road Dental Surgery,SK9 5ND,"Wilmslow, Cheshire, SK9 5ND",53.32697,-2.24035,exact,Cheshire East,Cheshire,North West,Jennifer,North England,England
1-13924115481,Alum Rock Dental Centre,B8 1ET,"2a, Bowyer Road, Birmingham, B8 1ET",52.487724,-1.852199,exact,Birmingham,,West Midlands,Shubhjoth,Midlands,England
1-228685553,Alva House Dental Practice,DA12 5UE,"Marling Cross, Gravesend, Kent, DA12 5UE",51.410546,0.388306,exact,Gravesham,Kent,South East,Russel,Greater London,England
1-6586905235,Alvechurch Dental Practice,B48 7LA,"Alvechurch, Birmingham, West Midlands, B48 7LA",52.35188,-1.959398,exact,Bromsgrove,West Midlands,West Midlands,Shubhjoth,Midlands,England
1-188868445,Alverna House Dental Practice,WA11 9QA,"St Helens, Merseyside, WA11 9QA",53.46192,-2.70625,exact,St. Helens,Merseyside,North West,Jennifer,North England,England
1-12955722960,Alvington House Dental Practice,IP33 1HP,"Bury St. Edmunds, IP33 1HP",52.248523,0.71659,exact,West Suffolk,,East of England,Muhammad,"South England, Ireland, and Scotland",England
1-581823391,Amadent Limited,DT1 1TP,"Dorchester, Dorset, DT1 1TP",50.71477,-2.43868,exact,Dorset,Dorset,South West,Muhammad,"South England, Ireland, and Scotland",England
1-13946574593,Amber Valley Dental Practice,DE55 1BQ,"Swanwick, Alfreton, Derbyshire, DE55 1BQ",53.074894,-1.404905,exact,Amber Valley,Derbyshire,East Midlands,Shubhjoth,Midlands,England
1-430951613,Ambience Dental Practice,SN1 1RN,"37-39 Queen Street, Swindon, Wiltshire, SN1 1RN",51.561706,-1.786701,exact,Swindon,Wiltshire,South West,Muhammad,"South England, Ireland, and Scotland",England
1-200103050,Amble Dental Practice,NE65 0LE,"45 High Street, Amble, Morpeth, Northumberland, NE65 0LE",55.332707,-1.587801,exact,Northumberland,Northumberland,North East,Jennifer,North England,England
1-1696292174,Amblecote Dental Care,DY5 2PR,"Brierley Hill, West Midlands, DY5 2PR",52.467539,-2.125585,exact,Dudley,West Midlands,West Midlands,Shubhjoth,Midlands,England
1-17074158769,Ambleside Dental Practice,SY1 4ET,"Shrewsbury, Shropshire, SY1 4ET",52.735042,-2.728799,exact,Shropshire,Shropshire,West Midlands,Shubhjoth,Midlands,England
1-11664668285,Ambra Aesthetic Clinic,N12 9RN,"Finchley, London, N12 9RN",51.61490096275073,-0.17761697851002858,outcode_fallback,,,London,Russel,Greater London,England
1-10694823605,Amelia Street Dental Clinic,SE17 3BZ,"22 Amelia Street, London, SE17 3BZ",51.489935,-0.098064,exact,Southwark,,London,Russel,Greater London,England
1-196864711,Amersham Dental Care Limited,HP6 5DW,"Amersham, Buckinghamshire, HP6 5DW",51.674737,-0.608946,exact,Buckinghamshire,Buckinghamshire,South East,Muhammad,"South England, Ireland, and Scotland",England
1-189951592,Amersham Hill Dental Clinic,HP13 6NR,"High Wycombe, Buckinghamshire, HP13 6NR",51.630635,-0.746648,exact,Buckinghamshire,Buckinghamshire,South East,Muhammad,"South England, Ireland, and Scotland",England
1-10233400950,Amery House Dental Practice,PO31 7TG,"Terminus Road, Cowes, PO31 7TG",50.762005,-1.298914,exact,Isle of Wight,,South East,Muhammad,"South England, Ireland, and Scotland",England
1-22129415035,Amesbury Dental Care,SP4 7HD,"Amesbury, Salisbury, SP4 7HD",51.171855,-1.780835,exact,Wiltshire,,South West,Muhammad,"South England, Ireland, and Scotland",England
1-14715852815,AMK Orthodontics Limited,L10 2JA,"Aintree, Liverpool, L10 2JA",53.485597,-2.948796,exact,Sefton,,North West,Jennifer,North England,England
1-14715852973,AMK Orthodontics Limited,WA1 1TW,"2-4 Market Place, Warrington, WA1 1TW",53.389302,-2.593779,exact,Warrington,,North West,Jennifer,North England,England
1-19886701041,"Ampthill Dental Practice, Miss K Saxby and Associates",MK45 2NJ,"19 Dunstable Street, Ampthill, Bedford, Bedfordshire, MK45 2NJ",52.027716,-0.49485,exact,Central Bedfordshire,Bedfordshire,East of England,Muhammad,"South England, Ireland, and Scotland",England
1-15356421390,Ampthill Town Dental Clinic,MK45 2PJ,"Bedford, MK45 2PJ",52.031542,-0.492403,exact,Central Bedfordshire,MK45 2PJ,East of England,Muhammad,"South England, Ireland, and Scotland",England
1-20710064167,AMQ Healthcare Ltd,WS15 2DZ,"Rugeley, Staffordshire, WS15 2DZ",52.758569,-1.931035,exact,Cannock Chase,WS15 2DZ,Midlands,Shubhjoth,Midlands,England
1-480981520,Amsel & Wilkins,OX16 5EG,"Banbury, Oxfordshire, OX16 5EG",52.06063,-1.337375,exact,Cherwell,Oxfordshire,South East,Muhammad,"South England, Ireland, and Scotland",England
1-10351004001,Amwell Street Dental Practice,EN11 8UA,"Hoddesdon, Hertfordshire, EN11 8UA",51.764693,-0.011119,exact,Broxbourne,Hertfordshire,East of England,Russel,Greater London,England
1-13360274846,Ancells Farm Dental Practice,GU51 2XF,"Falkners Close, Fleet, GU51 2XF",51.295014,-0.823822,exact,Hart,,South East,Muhammad,"South England, Ireland, and Scotland",England
1-354597287,Anchor Road Dental Practice,WS9 8PT,"Walsall, West Midlands, WS9 8PT",52.603723,-1.91939,exact,Walsall,West Midlands,West Midlands,Shubhjoth,Midlands,England
1-7089299608,Anderson and Broadberry Dental Care,S26 4WD,"Swallownest, Sheffield, South Yorkshire, S26 4WD",53.363014,-1.316887,exact,Rotherham,South Yorkshire,Yorkshire and The Humber,Shubhjoth,Midlands,England
1-9193178130,Andover Advanced Dental Centre,SP10 3LE,"Andover, SP10 3LE",51.214471,-1.496112,exact,Test Valley,,South East,Muhammad,"South England, Ireland, and Scotland",England
1-9250564969,Andover Dental Practice,SP10 3JY,"Andover, Hampshire, SP10 3JY",51.214047,-1.493553,exact,Test Valley,Hampshire,South East,Muhammad,"South England, Ireland, and Scotland",England
1-24193369057,Andrea Coxon,PO10 7FE,"Emsworth, PO10 7FE",50.857108,-0.944527,exact,Havant,PO10 7FE,South East,Muhammad,"South England, Ireland, and Scotland",England
1-2156493041,Andrea Ubhi,YO1 7LG,"York, North Yorkshire, YO1 7LG",53.962191,-1.079336,exact,York,North Yorkshire,Yorkshire and The Humber,Jennifer,North England,England
1-4995424634,Andrew Brown Dental Limited,PL19 8AU,"Tavistock, Devon, PL19 8AU",50.548331,-4.146119,exact,West Devon,Devon,South West,Muhammad,"South England, Ireland, and Scotland",England
1-10012016520,Andrew Brown Dental Practice,NR1 3HP,"Norwich, Norfolk, NR1 3HP",52.618481,1.297439,exact,Norwich,Norfolk,East of England,Muhammad,"South England, Ireland, and Scotland",England
1-186670703,Andrew Horne Limited t/a City Bridge Dental Care,BS10 5DX,"Westbury-on-Trym, Bristol, Avon, BS10 5DX",51.495177,-2.601018,exact,"Bristol, City of",Avon,South West,Shubhjoth,Midlands,England
1-2998071966,Andrew House Dental Practice,TN10 3AB,"13 London Road, Tonbridge, Kent, TN10 3AB",51.201551,0.276153,exact,Tonbridge and Malling,Kent,South East,Muhammad,"South England, Ireland, and Scotland",England
1-15829456541,Anele De Novo Dental Practice,CT6 6PD,"Beltinge, Herne Bay, Kent, CT6 6PD",51.369956,1.154691,exact,Canterbury,Kent,South East,Muhammad,"South England, Ireland, and Scotland",England
1-197072025,Angel Dental,N18 2TW,"Edmonton, London, N18 2TW",51.611078,-0.065823,exact,Enfield,,London,Russel,Greater London,England
1-6150769209,Angel Dental,BN3 8JG,"Hove, BN3 8JG",50.844989,-0.193474,exact,Brighton and Hove,,South East,Muhammad,"South England, Ireland, and Scotland",England
1-198628485,Angel Dental Care - Newcastle,NE5 1EH,"Chapel House, Newcastle Upon Tyne, Tyne and Wear, NE5 1EH",54.996001,-1.718257,exact,Newcastle upon Tyne,Tyne and Wear,North East,Jennifer,North England,England
1-199206131,Angel Dental Clinic,TR13 8RR,"Tyacke Road, Helston, Cornwall, TR13 8RR",50.099622,-5.274723,exact,Cornwall,Cornwall,South West,Muhammad,"South England, Ireland, and Scotland",England
1-199025226,Angel Dental Implant Centre,NW10 3JL,"Kensal Rise, London, NW10 3JL",51.532967,-0.218438,exact,Brent,,London,Russel,Greater London,England
1-11889858677,Angel Dental Implant Centre 2,SW1P 2BQ,"London, SW1P 2BQ",51.496291,-0.130935,exact,Westminster,,London,Russel,Greater London,England
1-9753511304,Angel Smile Dental & Orthodontics,N1 9LH,"London, N1 9LH",51.533057,-0.106475,exact,Islington,,London,Russel,Greater London,England
1-5101406927,Angle House,HA8 6QX,"Edgware, Middlesex, HA8 6QX",51.607147,-0.297333,exact,Harrow,Middlesex,London,Russel,Greater London,England
1-3959281271,Angle House Ealing Ltd,W5 5RG,"London, W5 5RG",51.505466,-0.304513,exact,Ealing,,London,Russel,Greater London,England
1-13057545278,Angle House Goff Oak Specialist Dentistry,EN7 5ET,"Goffs Lane, Goffs Oak, Waltham Cross, Hertfordshire, EN7 5ET",51.710107,-0.085846,exact,Broxbourne,Hertfordshire,East of England,Russel,Greater London,England
1-10688667866,Angle House Harrow Specialist Dentistry,HA1 2BU,"2 Lyons Square, Lyon Road, Harrow, HA1 2BU",51.581145,-0.332051,exact,Harrow,,London,Russel,Greater London,England
1-17709227788,Angle House Hatch End Specialist Dentistry,HA5 4JR,"Hatch End, Pinner, HA5 4JR",51.607516,-0.374034,exact,Harrow,,London,Russel,Greater London,England
1-13911881239,Angle House Orthodontics - Cricklewood,NW2 2DP,"London, NW2 2DP",51.55983,-0.209698,exact,Barnet,,London,Russel,Greater London,England
1-13911881195,Angle House Orthodontics - Edgware,HA8 7EJ,"54-58 High Street, Edgware, HA8 7EJ",51.61036,-0.278395,exact,Barnet,,London,Russel,Greater London,England
1-19320969173,Angle House Orthodontics Canons Park,HA8 6QX,"Edgware, Middlesex, HA8 6QX",51.607147,-0.297333,exact,Harrow,Middlesex,London,Russel,Greater London,England
1-189842598,Angle House Orthodontics Chingford,E4 8HX,"Chingford, London, E4 8HX",51.615053,-0.02856,exact,Waltham Forest,,London,Russel,Greater London,England
1-19320969199,Angle House Orthodontics Crouch End,N8 8TA,"Crouch End, London, N8 8TA",51.581677,-0.124806,exact,Haringey,,London,Russel,Greater London,England
1-14864455638,Angle House Orthodontics Edmonton,N18 1JX,"Edmonton, London, N18 1JX",51.620835,-0.083928,exact,Enfield,,London,Russel,Greater London,England
1-197781477,Angle House Orthodontics Enfield,EN2 8PD,"Enfield, Middlesex, EN2 8PD",51.657594,-0.0987,exact,Enfield,Middlesex,London,Russel,Greater London,England
1-19320969134,Angle House Orthodontics Highgate,N6 5JL,"Highgate High Street, London, N6 5JL",51.570451,-0.145514,exact,Haringey,,London,Russel,Greater London,England
1-5697612325,Angle House Orthodontics Islington,N1 0JH,"Copenhagen Street, London, N1 0JH",51.536218,-0.112356,exact,Islington,,London,Russel,Greater London,England
1-4724465500,Angle House Whetstone,N20 9LN,"1379 High Road, London, N20 9LN",51.63304,-0.176067,exact,Barnet,,London,Russel,Greater London,England
1-14492521459,Anglia Orthodontics,CB3 9PA,"Driftway, Cambridge, CB3 9PA",52.196179,0.111247,exact,Cambridge,,East of England,Muhammad,"South England, Ireland, and Scotland",England
1-2025125490,Anna House Dental Clinic,N15 4NP,"London, N15 4NP",51.582813,-0.071743,exact,Haringey,,London,Russel,Greater London,England
1-195002312,Anstey Family Dental Centre,LE7 7AB,"Anstey, Leicester, Leicestershire, LE7 7AB",52.671895,-1.189489,exact,Charnwood,Leicestershire,East Midlands,Shubhjoth,Midlands,England
1-189384070,Anterior Dental Care,NN15 7JU,"Kettering, Northamptonshire, NN15 7JU",52.395987,-0.730787,exact,North Northamptonshire,Northamptonshire,East Midlands,Shubhjoth,Midlands,England
1-5623604258,AnteriorDentalCare,NN15 7JU,"Kettering, Northamptonshire, NN15 7JU",52.395987,-0.730787,exact,North Northamptonshire,Northamptonshire,East Midlands,Shubhjoth,Midlands,England
1-6591944394,Antrim House,WV10 8BN,"Wolverhampton, West Midlands, WV10 8BN",52.611245,-2.105587,exact,Wolverhampton,West Midlands,West Midlands,Shubhjoth,Midlands,England
1-229787340,Antrobus Dental Surgery,B73 5UD,"Sutton Coldfield, Birmingham, West Midlands, B73 5UD",52.546126,-1.840764,exact,Birmingham,West Midlands,West Midlands,Shubhjoth,Midlands,England
1-194960498,Antwerp House Dental Practice,CB1 3NW,"Cambridge, Cambridgeshire, CB1 3NW",52.196095,0.155155,exact,Cambridge,Cambridgeshire,East of England,Muhammad,"South England, Ireland, and Scotland",England
1-1735063553,AP Dental Practice,N1 1BB,"London, N1 1BB",51.540145,-0.11665,exact,Islington,,London,Russel,Greater London,England
1-2477051432,AP Dental Practice,E2 0AA,"London, E2 0AA",51.526053,-0.066904,exact,Tower Hamlets,,London,Russel,Greater London,England
1-418676601,AP Smilecare,BB2 6BJ,"Blackburn, Lancashire, BB2 6BJ",53.750621,-2.496288,exact,Blackburn with Darwen,Lancashire,North West,Jennifer,North England,England
1-24290063816,Apex Dental and Implant Centre,TW13 6BG,"Feltham, TW13 6BG",51.436992,-0.380485,exact,Hounslow,TW13 6BG,London,Russel,Greater London,England
1-15921849195,Apex Dental Care,IG11 8AA,"Barking, Essex, IG11 8AA",51.537997,0.078612,exact,Barking and Dagenham,Essex,London,Russel,Greater London,England
1-4498940918,Apex Dental Care,NW7 3JR,"Mill Hill, London, NW7 3JR",51.621007,-0.254676,exact,Barnet,,London,Russel,Greater London,England
1-1109577388,Apex Dental Care - Gorleston-on-Sea,NR31 6RQ,"Gorleston, Great Yarmouth, Norfolk, NR31 6RQ",52.581069,1.728947,exact,Great Yarmouth,Norfolk,East of England,Muhammad,"South England, Ireland, and Scotland",England
1-1750909957,Apex Dental Care Dronfield Partnership,S18 1PE,"Dronfield, S18 1PE",53.303354,-1.478897,exact,North East Derbyshire,,East Midlands,Shubhjoth,Midlands,England
1-2119349224,Apex Dental Care Partnership - Wallington,SM6 9AN,"Wallington, Surrey, SM6 9AN",51.35792,-0.146253,exact,Sutton,Surrey,London,Russel,Greater London,England
1-6124548928,Apex Dental Group Limited,N12 0BT,"London, N12 0BT",51.612098,-0.176098,exact,Barnet,,London,Russel,Greater London,England
1-10319062038,Apex Dental Practice Street,BA16 0EW,"Street, Somerset, BA16 0EW",51.12615,-2.741401,exact,Somerset,Somerset,South West,Muhammad,"South England, Ireland, and Scotland",England
1-10319061673,Apex Dental Somerton,TA11 7ND,"Broad Street, Somerton, Somerset, TA11 7ND",51.054594,-2.727787,exact,Somerset,Somerset,South West,Muhammad,"South England, Ireland, and Scotland",England
1-25062994750,Apex Endodontics,OX9 3XA,"Thame, OX9 3XA",51.73987,-0.968995,exact,South Oxfordshire,OX9 3XA,South East,Muhammad,"South England, Ireland, and Scotland",England
1-20201360711,Apolline House Dental Practice,E4 7DP,"London, E4 7DP",51.632881,0.004018,exact,Waltham Forest,,London,Russel,Greater London,England
1-203210853,Apollo Dental Health Clinic,SS2 6UN,"Aviation Way, Southend On Sea, Essex, SS2 6UN",51.572585,0.687082,exact,Rochford,Essex,East of England,Muhammad,"South England, Ireland, and Scotland",England
1-195052376,Apollonia Dental & Cosmetic Centre,L1 9EN,"Liverpool, Merseyside, L1 9EN",53.400996,-2.973204,exact,Liverpool,Merseyside,North West,Jennifer,North England,England
1-19233295251,Apollonia Dental Care,UB6 8QZ,"Greenford, Middlesex, UB6 8QZ",51.529714,-0.351549,exact,Ealing,Middlesex,London,Russel,Greater London,England
1-2072371474,Apollonia House Dental & Health Care,OL4 4HA,"Grasscroft, Oldham, Lancashire, OL4 4HA",53.53389,-2.033272,exact,Oldham,Lancashire,North West,Jennifer,North England,England
1-194490547,Apollonia House Dental Practice,EX10 8UH,"Sidmouth, Devon, EX10 8UH",50.684939,-3.238438,exact,East Devon,Devon,South West,Muhammad,"South England, Ireland, and Scotland",England
1-4945500864,Apple Dental Care,SW6 7SR,"London, SW6 7SR",51.485262,-0.203159,exact,Hammersmith and Fulham,,London,Russel,Greater London,England
1-15315993695,Apple Dental Practice - Abbotswood,BS37 4NG,"Yate, Bristol, BS37 4NG",51.529121,-2.424137,exact,South Gloucestershire,,South West,Shubhjoth,Midlands,England
1-15315993752,Apple Dental Practice - Wellington Road,BS37 5UY,"Yate, Bristol, Avon, BS37 5UY",51.548907,-2.417759,exact,South Gloucestershire,Avon,South West,Shubhjoth,Midlands,England
1-15315993779,Apple Dental Practice - Winterbourne,BS36 1RD,"Winterbourne, Bristol, BS36 1RD",51.528592,-2.503432,exact,South Gloucestershire,,South West,Shubhjoth,Midlands,England
1-203875640,Apple Dental Studios,HA5 5NA,"Pinner, Middlesex, HA5 5NA",51.592543,-0.381817,exact,Harrow,Middlesex,London,Russel,Greater London,England
1-687378430,Apple Tree Dental Practice,CB23 7DS,"Comberton, Cambridge, Cambridgeshire, CB23 7DS",52.186449,0.015622,exact,South Cambridgeshire,Cambridgeshire,East of England,Muhammad,"South England, Ireland, and Scotland",England
1-4789012490,Appleby and Associates Dental Practice,LN6 8NH,"North Hykeham, Lincoln, Lincolnshire, LN6 8NH",53.183454,-0.587133,exact,North Kesteven,Lincolnshire,East Midlands,Shubhjoth,Midlands,England
1-213741538,Appledore Dental Clinic Milton Keynes,MK9 2EA,"376 Midsummer Boulevard, Milton Keynes, Buckinghamshire, MK9 2EA",52.039062,-0.761165,exact,Milton Keynes,Buckinghamshire,South East,Muhammad,"South England, Ireland, and Scotland",England
1-6791351313,Appleton Park Dental Surgery,WA4 5EQ,"Appleton, Warrington, Cheshire, WA4 5EQ",53.35262,-2.571425,exact,Warrington,Cheshire,North West,Jennifer,North England,England
1-16339711474,Appletree Dental Practice,YO12 5EA,"Scarborough, North Yorkshire, YO12 5EA",54.277944,-0.410922,exact,North Yorkshire,North Yorkshire,Yorkshire and The Humber,Jennifer,North England,England
1-215484578,Appletree Dental Surgery,CT6 7HL,"Herne, Herne Bay, Kent, CT6 7HL",51.350187,1.133553,exact,Canterbury,Kent,South East,Muhammad,"South England, Ireland, and Scotland",England
1-10314051447,Appoline Dental Care,NG31 7DL,"137 Dysart Road, Grantham, Lincolnshire, NG31 7DL",52.910158,-0.657246,exact,South Kesteven,Lincolnshire,East Midlands,Shubhjoth,Midlands,England
1-187596094,Appollonia Dental Practice,SO40 3AQ,"Totton, Southampton, Hampshire, SO40 3AQ",50.919233,-1.487188,exact,New Forest,Hampshire,South East,Muhammad,"South England, Ireland, and Scotland",England
1-241741937,Appolonia Dental Centre,IP1 3QJ,"Ipswich, Suffolk, IP1 3QJ",52.060272,1.151264,exact,Ipswich,Suffolk,East of England,Muhammad,"South England, Ireland, and Scotland",England
1-200073026,Approach Dentistry,NW4 2HS,"Hendon, London, NW4 2HS",51.584613,-0.21737,exact,Barnet,,London,Russel,Greater London,England
1-2106648122,Aqua Dental Clinic,HA5 4DR,"Hatch End, Pinner, Middlesex, HA5 4DR",51.609325,-0.365737,exact,Harrow,Middlesex,London,Russel,Greater London,England
1-24485813148,Aquae Sulis Dental Practice,BA1 3DS,"Ashley Avenue, Bath, Somerset, BA1 3DS",51.383933,-2.38717,exact,Bath and North East Somerset,Somerset,South West,Muhammad,"South England, Ireland, and Scotland",England
1-24995158982,AR Dental Clinic,IP1 1EY,"Ipswich, Suffolk, IP1 1EY",52.057139,1.151379,exact,Ipswich,Suffolk,East of England,Muhammad,"South England, Ireland, and Scotland",England
1-19681215402,AR Smiles,SE9 6UD,"Eltham, London, SE9 6UD",51.46684,0.052886,exact,Greenwich,,London,Russel,Greater London,England
1-5765011185,Arbour Dental Practice,SO22 6RN,"Winchester, SO22 6RN",51.067444,-1.323995,exact,Winchester,,South East,Muhammad,"South England, Ireland, and Scotland",England
1-10840758415,ARC Dental Studio,SY12 0EU,"Ellesmere, SY12 0EU",52.90786,-2.891929,exact,Shropshire,,West Midlands,Shubhjoth,Midlands,England
1-22165392766,ARC Dental Surgery,FY4 1DR,"Blackpool, Lancashire, FY4 1DR",53.797377,-3.050632,exact,Blackpool,Lancashire,North West,Jennifer,North England,England
1-15762793368,Arch Dental Care,SG7 6BG,"Baldock, Hertfordshire, SG7 6BG",51.987417,-0.186155,exact,North Hertfordshire,Hertfordshire,East of England,Muhammad,"South England, Ireland, and Scotland",England
1-10364429083,Arch Dental Studio,HA9 0NP,"Wembley, HA9 0NP",51.5613,-0.279195,exact,Brent,,London,Russel,Greater London,England
1-199929192,Archangel Clinic Limited,W2 5RA,"Bayswater, London, W2 5RA",51.515843,-0.188925,exact,Westminster,,London,Russel,Greater London,England
1-15274493115,Archway Dental,PL17 8EX,"Kelly Bray, Callington, PL17 8EX",50.518931,-4.310396,exact,Cornwall,,South West,Muhammad,"South England, Ireland, and Scotland",England
1-17591287762,Archway Dental - Well Street,PL17 7AU,"Well Street, Callington, PL17 7AU",50.503388,-4.314475,exact,Cornwall,,South West,Muhammad,"South England, Ireland, and Scotland",England
1-17708677873,Archway Dental (Saltash),PL12 6AB,"Saltash, PL12 6AB",50.408803,-4.214588,exact,Cornwall,,South West,Muhammad,"South England, Ireland, and Scotland",England
1-7957571580,Archway Dental Practice,M15 5RD,"Manchester, M15 5RD",53.460267,-2.246494,exact,Manchester,M15 5RD,North West,Jennifer,North England,England
1-7198194577,Archway Dental Practice - Stokesley,TS9 5AD,"Stokesley, Middlesbrough, Cleveland, TS9 5AD",54.469663,-1.191935,exact,North Yorkshire,Cleveland,Yorkshire and The Humber,Jennifer,North England,England
1-7237538325,Archway Dental Practice - Stokesley (Riverdale Tradeco Limited),TS9 5AD,"Middlesbrough, Cleveland, TS9 5AD",54.469663,-1.191935,exact,North Yorkshire,TS9 5AD,North East and Yorkshire,Jennifer,North England,England
1-5832838911,Archway Park Dental Practice,N19 3RR,"London, N19 3RR",51.56614,-0.133367,exact,Islington,,London,Russel,Greater London,England
1-1936314064,Arcot Dental Practice,DT7 3HR,"Lyme Regis, Dorset, DT7 3HR",50.725547,-2.937316,exact,Dorset,Dorset,South West,Muhammad,"South England, Ireland, and Scotland",England
1-204325009,Arden House Dental & Cosmetic Clinic,GL52 6HW,"232 London Road, Charlton Kings, Cheltenham, Gloucestershire, GL52 6HW",51.890176,-2.057618,exact,Cheltenham,Gloucestershire,South West,Shubhjoth,Midlands,England
1-10269120125,Ardencray Ltd,HA4 7DA,"Ruislip, Middlesex, HA4 7DA",51.572505,-0.426585,exact,Hillingdon,Middlesex,London,Russel,Greater London,England
1-12814178086,Ardent Smile Ltd,E5 9BU,"London, E5 9BU",51.563621,-0.059122,exact,Hackney,,London,Russel,Greater London,England
1-211386020,Ardleigh Green Dental Clinic,RM11 2LG,"Hornchurch, Essex, RM11 2LG",51.583278,0.220896,exact,Havering,Essex,London,Russel,Greater London,England
1-2295297370,Argo Practices Shrewsbury,SY3 7FA,"Shrewsbury, Shropshire, SY3 7FA",52.702901,-2.742071,exact,Shropshire,Shropshire,West Midlands,Shubhjoth,Midlands,England
1-225148859,ARK Dental Practice,W14 0SP,"West Kensington, London, W14 0SP",51.493295,-0.212797,exact,Hammersmith and Fulham,,London,Russel,Greater London,England
1-21965488596,Ark Dentistry,HD3 3DU,"Huddersfield, HD3 3DU",53.653152,-1.816486,exact,Kirklees,HD3 3DU,North East and Yorkshire,Jennifer,North England,England
1-714973311,Ark-G Dental & Cosmetics Centre,DA1 4HG,"Crayford, Kent, DA1 4HG",51.452411,0.177749,exact,Bexley,Kent,London,Russel,Greater London,England
1-16146678481,Arkh-View Dental Care,BR1 4PH,"Bromley, BR1 4PH",51.425199,-0.004132,exact,Lewisham,,London,Russel,Greater London,England
1-14977499278,Arkh-View Dental Centre West Norwood,SE27 9BW,"London, SE27 9BW",51.439888,-0.105683,exact,Lambeth,SE27 9BW,London,Russel,Greater London,England
1-196568432,Armada Dental Surgery,PL4 8PT,"St Jude's, Plymouth, Devon, PL4 8PT",50.373678,-4.126469,exact,Plymouth,Devon,South West,Muhammad,"South England, Ireland, and Scotland",England
1-13950092995,Armley Dental Practice,LS12 1XB,"Leeds, West Yorkshire, LS12 1XB",53.796099,-1.590668,exact,Leeds,West Yorkshire,Yorkshire and The Humber,Jennifer,North England,England
1-189386753,Armstrong & Haire Limited,WF10 1JD,"Castleford, West Yorkshire, WF10 1JD",53.726895,-1.354098,exact,Wakefield,West Yorkshire,Yorkshire and The Humber,Jennifer,North England,England
1-2056173535,Armytage Dental Practice,TW5 9TY,"Cranford, Middlesex, TW5 9TY",51.479597,-0.41197,exact,Hounslow,Middlesex,London,Russel,Greater London,England
1-16872860191,Arndale Dental & Implant Clinic - Boots Manchester,M1 1PW,"32 Market Street, Manchester, M1 1PW",53.482512,-2.242388,exact,Manchester,,North West,Jennifer,North England,England
1-2262813075,Arnica Dental Care,GL53 0BS,"Cheltenham, Gloucestershire, GL53 0BS",51.881918,-2.078992,exact,Cheltenham,Gloucestershire,South West,Shubhjoth,Midlands,England
1-21724145431,Arnold Dental and Implant Centre,NG5 7DJ,"Nottingham, Nottinghamshire, NG5 7DJ",53.003846,-1.129404,exact,Gedling,NG5 7DJ,Midlands,,,England
1-13520917205,Arnold Dental Care,NG5 7EE,"Arnold, Nottingham, NG5 7EE",53.006205,-1.127479,exact,Gedling,,East Midlands,Shubhjoth,Midlands,England
1-4573256073,Arnold Lodge,LE5 0LE,"Leicester, Leicestershire, LE5 0LE",52.648673,-1.093765,exact,Leicester,Leicestershire,East Midlands,Shubhjoth,Midlands,England
1-10936748713,Arnot Hill Dental Clinic,NG5 6LF,"Arnold, Nottingham, NG5 6LF",53.000934,-1.130774,exact,Gedling,,East Midlands,Shubhjoth,Midlands,England
1-24235719905,Arnside Dental Practice,LA5 0DT,"Arnside, Carnforth, Carnforth, LA5 0DT",54.198355,-2.832921,exact,Westmorland and Furness,,North West,Jennifer,North England,England
1-217854413,Aromaden Teddington,TW11 8EW,"Teddington, Middlesex, TW11 8EW",51.427,-0.332895,exact,Richmond upon Thames,Middlesex,London,Russel,Greater London,England
1-14428492823,Aron Marcus Dental Practice,N20 9HE,"London, N20 9HE",51.630103,-0.17396,exact,Barnet,,London,Russel,Greater London,England
1-13180739973,Aron Marcus Dental Surgery,N20 9HE,"London, N20 9HE",51.630103,-0.17396,exact,Barnet,,London,Russel,Greater London,England
1-197972942,Arrow Dental Practice,NW1 3QT,"London, NW1 3QT",51.528392,-0.14261,exact,Camden,,London,Russel,Greater London,England
1-9888093987,Arrowe Park Dental Practice,CH49 0UG,"Wirral, Merseyside, CH49 0UG",53.377819,-3.096889,exact,Wirral,Merseyside,North West,Jennifer,North England,England
1-7058220629,Arshad Rafiq- Longridge,PR3 3WH,"Longridge, Preston, Lancashire, PR3 3WH",53.833066,-2.606149,exact,Ribble Valley,Lancashire,North West,Jennifer,North England,England
1-11397410791,Art Dental and Beauty,ME15 6SJ,"Maidstone, ME15 6SJ",51.267417,0.520727,exact,Maidstone,ME15 6SJ,South East,Muhammad,"South England, Ireland, and Scotland",England
1-25402094725,Art Dental Care,TN1 2UY,"Tunbridge Wells, TN1 2UY",51.133328,0.267706,exact,Tunbridge Wells,,South East,Muhammad,"South England, Ireland, and Scotland",England
1-210739864,Art Dentistry,W1G 6HP,"London, W1G 6HP",51.522083,-0.149685,exact,Westminster,,London,Russel,Greater London,England
1-19595476614,Art of Dental Care,CH1 4EJ,"Chester, CH1 4EJ",53.193803,-2.895567,exact,Cheshire West and Chester,,North West,Jennifer,North England,England
1-25539718109,Arte Dental,B5 6EE,"Birmingham, B5 6EE",52.471945,-1.892809,exact,Birmingham,B5 6EE,Midlands,Shubhjoth,Midlands,England
1-197283767,Arthur House Dental Care,B75 5BL,"Sutton Coldfield, West Midlands, B75 5BL",52.587841,-1.828776,exact,Birmingham,West Midlands,West Midlands,Shubhjoth,Midlands,England
1-2410650982,Arthur Road Dental Practice,SW19 8AQ,"London, SW19 8AQ",51.434866,-0.197295,exact,Merton,,London,Russel,Greater London,England
1-8001335647,Artisan Implants,SE3 7DH,"London, SE3 7DH",51.477834,0.01896,exact,Greenwich,,London,Russel,Greater London,England
1-220105022,Artiste Studios - L'Orthodontiste,W6 7AL,"London, W6 7AL",51.493281,-0.223674,exact,Hammersmith and Fulham,,London,Russel,Greater London,England
1-2819976962,Arundel Dental Care,BN18 9AB,"Arundel, West Sussex, BN18 9AB",50.855822,-0.553402,exact,Arun,West Sussex,South East,Muhammad,"South England, Ireland, and Scotland",England
1-19346368540,Arundel dental practice,SK7 2DN,"Stockport, Greater Manchester, SK7 2DN",53.359196,-2.165224,exact,Stockport,SK7 2DN,North West,Jennifer,North England,England
1-2071174934,Arundel Dental Practice,SK7 2DN,"Bramhall, Stockport, Cheshire, SK7 2DN",53.359196,-2.165224,exact,Stockport,Cheshire,North West,Jennifer,North England,England
1-307286849,Arundel Lodge Dental Surgery Ltd,RH4 3HR,"Dorking, Surrey, RH4 3HR",51.230614,-0.337064,exact,Mole Valley,Surrey,South East,Muhammad,"South England, Ireland, and Scotland",England
1-14781318713,Ascent Dental - Solihull,B93 8HH,"Dorridge, Solihull, B93 8HH",52.373343,-1.753957,exact,Solihull,,West Midlands,Shubhjoth,Midlands,England
1-14873504894,Ascent Dental Care - Leamington Spa,CV32 5SZ,"Leamington Spa, CV32 5SZ",52.294,-1.534443,exact,Warwick,,West Midlands,Shubhjoth,Midlands,England
1-5054996522,Ascent Dental Care Loughborough,LE11 2HH,"Loughborough, Leicestershire, LE11 2HH",52.762533,-1.205694,exact,Charnwood,Leicestershire,East Midlands,Shubhjoth,Midlands,England
1-4555672722,Ascent Dental Care Malvern,WR14 3LT,"Malvern, Worcestershire, WR14 3LT",52.10868,-2.31048,exact,Malvern Hills,Worcestershire,West Midlands,Shubhjoth,Midlands,England
1-10764888431,Ascot Aesthetic Suite,SL5 8HN,"3 Warren Row, Ascot, SL5 8HN",51.41703,-0.698873,exact,Bracknell Forest,,South East,Muhammad,"South England, Ireland, and Scotland",England
1-20634257276,Ascroft Medical Billingtons,OL1 1HY,"Oldham, OL1 1HY",53.54087,-2.112196,exact,Oldham,OL1 1HY,North West,Jennifer,North England,England
1-7926114905,Ascroft Medical Clegg Street,OL1 1PL,"Oldham, OL1 1PL",53.540987,-2.111668,exact,Oldham,,North West,Jennifer,North England,England
RLQ60,Asda Health Centre,HR2 7JE,"Belmont Road, Hereford, Herefordshire, HR2 7JE",52.049432,-2.722332,exact,"Herefordshire, County of",Herefordshire,West Midlands,Shubhjoth,Midlands,England
1-12873651031,Asden House Dental Clinic,B70 8ET,"Victoria Street, West Bromwich, B70 8ET",52.518877,-1.996237,exact,Sandwell,,West Midlands,Shubhjoth,Midlands,England
1-8478841948,Ash Dental Practice,M30 0PF,"Liverpool Road, Eccles, Manchester, M30 0PF",53.482931,-2.352501,exact,Salford,,North West,Jennifer,North England,England
1-418301186,Ash Tree House Dental Surgery,HP10 0EE,"Wooburn Green, High Wycombe, Buckinghamshire, HP10 0EE",51.588762,-0.682727,exact,Buckinghamshire,Buckinghamshire,South East,Muhammad,"South England, Ireland, and Scotland",England
1-210898855,Ash Vale Dental Surgery,GU12 5HR,"Ash Vale, Aldershot, Hampshire, GU12 5HR",51.260322,-0.722663,exact,Guildford,Hampshire,South East,Muhammad,"South England, Ireland, and Scotland",England
1-10882884904,Ash Villa Dental Practice,M33 6QX,"Sale, Cheshire, M33 6QX",53.421027,-2.333633,exact,Trafford,Cheshire,North West,Jennifer,North England,England
1-677259066,Ashbee House Dental Practice,GL55 6JX,"Battlebrook Drive, Chipping Campden, Gloucestershire, GL55 6JX",52.054112,-1.755695,exact,Cotswold,Gloucestershire,South West,Shubhjoth,Midlands,England
1-2288785206,Ashbourne Dental Practice,DE6 1EE,"Ashbourne, Derbyshire, DE6 1EE",53.022114,-1.722964,exact,Derbyshire Dales,Derbyshire,East Midlands,Shubhjoth,Midlands,England
1-6715810930,Ashbourne Road Dental,DE22 3AD,"Derby, DE22 3AD",52.925808,-1.492511,exact,Derby,,East Midlands,Shubhjoth,Midlands,England
